[
  {
    "name": "hoekstra",
    "city": "Luxembourg",
    "country": "LU",
    "lat": 49.53298,
    "lng": 6.15942,
    "relay": "https://relay-lu-luxembourg.macula.io:4433",
    "site": {
      "site_id": "d2f3dea8f6c5401f",
      "name": "Hoekstra",
      "city": "Luxembourg",
      "country": "LU",
      "lat": 49.53298,
      "lng": 6.15942,
      "site_type": "household"
    }
  },
  {
    "name": "wagner",
    "city": "Liege",
    "country": "BE",
    "lat": 50.53602,
    "lng": 5.62092,
    "relay": "https://relay-be-liege.macula.io:4433",
    "site": {
      "site_id": "136b068ea4025d0b",
      "name": "Wagner",
      "city": "Liege",
      "country": "BE",
      "lat": 50.53602,
      "lng": 5.62092,
      "site_type": "household"
    }
  },
  {
    "name": "apotheek-centraal",
    "city": "Differdange",
    "country": "LU",
    "lat": 49.60738,
    "lng": 5.88163,
    "relay": "https://relay-lu-differdange.macula.io:4433",
    "site": {
      "site_id": "cc13d1d6c9fcd590",
      "name": "Apotheek Centraal",
      "city": "Differdange",
      "country": "LU",
      "lat": 49.60738,
      "lng": 5.88163,
      "site_type": "business"
    }
  },
  {
    "name": "advocaat-stevens",
    "city": "Enschede",
    "country": "NL",
    "lat": 52.15184,
    "lng": 6.79639,
    "relay": "https://relay-nl-enschede.macula.io:4433",
    "site": {
      "site_id": "7e82061fec5a84e9",
      "name": "Advocaat Stevens",
      "city": "Enschede",
      "country": "NL",
      "lat": 52.15184,
      "lng": 6.79639,
      "site_type": "business"
    }
  },
  {
    "name": "schiltz",
    "city": "Bergen-op-Zoom",
    "country": "NL",
    "lat": 51.40277,
    "lng": 4.36236,
    "relay": "https://relay-nl-bergen-op-zoom.macula.io:4433",
    "site": {
      "site_id": "5557d005e8a805a7",
      "name": "Schiltz",
      "city": "Bergen-op-Zoom",
      "country": "NL",
      "lat": 51.40277,
      "lng": 4.36236,
      "site_type": "household"
    }
  },
  {
    "name": "steel-esch",
    "city": "Enschede",
    "country": "NL",
    "lat": 52.29595,
    "lng": 6.8021,
    "relay": "https://relay-nl-enschede.macula.io:4433",
    "site": {
      "site_id": "7c4dba2bd5a94a8e",
      "name": "Steel Esch",
      "city": "Enschede",
      "country": "NL",
      "lat": 52.29595,
      "lng": 6.8021,
      "site_type": "business"
    }
  },
  {
    "name": "peters",
    "city": "Leeuwarden",
    "country": "NL",
    "lat": 53.11204,
    "lng": 5.84819,
    "relay": "https://relay-nl-leeuwarden.macula.io:4433",
    "site": {
      "site_id": "f6fe0d9a993724cb",
      "name": "Peters",
      "city": "Leeuwarden",
      "country": "NL",
      "lat": 53.11204,
      "lng": 5.84819,
      "site_type": "household"
    }
  },
  {
    "name": "lemaire",
    "city": "Lier",
    "country": "BE",
    "lat": 51.13884,
    "lng": 4.44623,
    "relay": "https://relay-be-lier.macula.io:4433",
    "site": {
      "site_id": "f2b1e6e400e81f48",
      "name": "Lemaire",
      "city": "Lier",
      "country": "BE",
      "lat": 51.13884,
      "lng": 4.44623,
      "site_type": "household"
    }
  },
  {
    "name": "de-graef",
    "city": "Verviers",
    "country": "BE",
    "lat": 50.58367,
    "lng": 5.90993,
    "relay": "https://relay-be-verviers.macula.io:4433",
    "site": {
      "site_id": "a009cce66ab99b6a",
      "name": "De Graef",
      "city": "Verviers",
      "country": "BE",
      "lat": 50.58367,
      "lng": 5.90993,
      "site_type": "household"
    }
  },
  {
    "name": "tech-flanders",
    "city": "Ypres",
    "country": "BE",
    "lat": 50.85799,
    "lng": 2.98457,
    "relay": "https://relay-be-ypres.macula.io:4433",
    "site": {
      "site_id": "410766d5801ad49c",
      "name": "Tech Flanders",
      "city": "Ypres",
      "country": "BE",
      "lat": 50.85799,
      "lng": 2.98457,
      "site_type": "business"
    }
  },
  {
    "name": "bodart",
    "city": "Ghent",
    "country": "BE",
    "lat": 51.08785,
    "lng": 3.78059,
    "relay": "https://relay-be-ghent.macula.io:4433",
    "site": {
      "site_id": "8ae5dafc4e117f42",
      "name": "Bodart",
      "city": "Ghent",
      "country": "BE",
      "lat": 51.08785,
      "lng": 3.78059,
      "site_type": "household"
    }
  },
  {
    "name": "de-smedt",
    "city": "Charleroi",
    "country": "BE",
    "lat": 50.40339,
    "lng": 4.40321,
    "relay": "https://relay-be-charleroi.macula.io:4433",
    "site": {
      "site_id": "1432ab427fd6b7a3",
      "name": "De Smedt",
      "city": "Charleroi",
      "country": "BE",
      "lat": 50.40339,
      "lng": 4.40321,
      "site_type": "household"
    }
  },
  {
    "name": "servais",
    "city": "Groningen",
    "country": "NL",
    "lat": 53.18349,
    "lng": 6.67417,
    "relay": "https://relay-nl-groningen.macula.io:4433",
    "site": {
      "site_id": "ad0fd42d6f973ea8",
      "name": "Servais",
      "city": "Groningen",
      "country": "NL",
      "lat": 53.18349,
      "lng": 6.67417,
      "site_type": "household"
    }
  },
  {
    "name": "logistiek-zeebrugge",
    "city": "Antwerp",
    "country": "BE",
    "lat": 51.23817,
    "lng": 4.51029,
    "relay": "https://relay-be-antwerp.macula.io:4433",
    "site": {
      "site_id": "7942670f63efec29",
      "name": "Logistiek Zeebrugge",
      "city": "Antwerp",
      "country": "BE",
      "lat": 51.23817,
      "lng": 4.51029,
      "site_type": "business"
    }
  },
  {
    "name": "mulder",
    "city": "Brussels",
    "country": "BE",
    "lat": 50.90909,
    "lng": 4.23432,
    "relay": "https://relay-be-brussels.macula.io:4433",
    "site": {
      "site_id": "6f6433ee8ce6901e",
      "name": "Mulder",
      "city": "Brussels",
      "country": "BE",
      "lat": 50.90909,
      "lng": 4.23432,
      "site_type": "household"
    }
  },
  {
    "name": "smeets",
    "city": "Utrecht",
    "country": "NL",
    "lat": 51.98683,
    "lng": 5.14602,
    "relay": "https://relay-nl-utrecht.macula.io:4433",
    "site": {
      "site_id": "d4d8dc8353ab4e28",
      "name": "Smeets",
      "city": "Utrecht",
      "country": "NL",
      "lat": 51.98683,
      "lng": 5.14602,
      "site_type": "household"
    }
  },
  {
    "name": "bakker",
    "city": "Halle",
    "country": "BE",
    "lat": 50.73578,
    "lng": 4.07674,
    "relay": "https://relay-be-halle.macula.io:4433",
    "site": {
      "site_id": "f3f0cd975d85be4d",
      "name": "Bakker",
      "city": "Halle",
      "country": "BE",
      "lat": 50.73578,
      "lng": 4.07674,
      "site_type": "household"
    }
  },
  {
    "name": "menuiserie-leclercq",
    "city": "Breda",
    "country": "NL",
    "lat": 51.4819,
    "lng": 4.73284,
    "relay": "https://relay-nl-breda.macula.io:4433",
    "site": {
      "site_id": "f5167a9c6c7c15f5",
      "name": "Menuiserie Leclercq",
      "city": "Breda",
      "country": "NL",
      "lat": 51.4819,
      "lng": 4.73284,
      "site_type": "business"
    }
  },
  {
    "name": "vandenbulcke",
    "city": "Tournai",
    "country": "BE",
    "lat": 50.54948,
    "lng": 3.39468,
    "relay": "https://relay-be-tournai.macula.io:4433",
    "site": {
      "site_id": "758f17236a9f1d9c",
      "name": "Vandenbulcke",
      "city": "Tournai",
      "country": "BE",
      "lat": 50.54948,
      "lng": 3.39468,
      "site_type": "household"
    }
  },
  {
    "name": "van-acker",
    "city": "Venlo",
    "country": "NL",
    "lat": 51.43204,
    "lng": 6.19061,
    "relay": "https://relay-nl-venlo.macula.io:4433",
    "site": {
      "site_id": "f2b2c98f17e9eccc",
      "name": "Van Acker",
      "city": "Venlo",
      "country": "NL",
      "lat": 51.43204,
      "lng": 6.19061,
      "site_type": "household"
    }
  },
  {
    "name": "maritiem-antwerpen",
    "city": "Tilburg",
    "country": "NL",
    "lat": 51.53949,
    "lng": 4.93399,
    "relay": "https://relay-nl-tilburg.macula.io:4433",
    "site": {
      "site_id": "a183de23ab0b55a4",
      "name": "Maritiem Antwerpen",
      "city": "Tilburg",
      "country": "NL",
      "lat": 51.53949,
      "lng": 4.93399,
      "site_type": "business"
    }
  },
  {
    "name": "sels",
    "city": "Leuven",
    "country": "BE",
    "lat": 50.95823,
    "lng": 4.68537,
    "relay": "https://relay-be-leuven.macula.io:4433",
    "site": {
      "site_id": "5f60ae48bba88484",
      "name": "Sels",
      "city": "Leuven",
      "country": "BE",
      "lat": 50.95823,
      "lng": 4.68537,
      "site_type": "household"
    }
  },
  {
    "name": "kuijpers",
    "city": "Eindhoven",
    "country": "NL",
    "lat": 51.36784,
    "lng": 5.39262,
    "relay": "https://relay-nl-eindhoven.macula.io:4433",
    "site": {
      "site_id": "cf0be2d1fed57058",
      "name": "Kuijpers",
      "city": "Eindhoven",
      "country": "NL",
      "lat": 51.36784,
      "lng": 5.39262,
      "site_type": "household"
    }
  },
  {
    "name": "henrotte",
    "city": "Ghent",
    "country": "BE",
    "lat": 51.02945,
    "lng": 3.66789,
    "relay": "https://relay-be-ghent.macula.io:4433",
    "site": {
      "site_id": "1d7e6413b7984efb",
      "name": "Henrotte",
      "city": "Ghent",
      "country": "BE",
      "lat": 51.02945,
      "lng": 3.66789,
      "site_type": "household"
    }
  },
  {
    "name": "bloemen-maes",
    "city": "Leiden",
    "country": "NL",
    "lat": 52.18303,
    "lng": 4.57874,
    "relay": "https://relay-nl-leiden.macula.io:4433",
    "site": {
      "site_id": "43d64b083f29a26a",
      "name": "Bloemen Maes",
      "city": "Leiden",
      "country": "NL",
      "lat": 52.18303,
      "lng": 4.57874,
      "site_type": "business"
    }
  },
  {
    "name": "solar-almere",
    "city": "Amsterdam",
    "country": "NL",
    "lat": 52.38235,
    "lng": 5.0024,
    "relay": "https://relay-nl-amsterdam.macula.io:4433",
    "site": {
      "site_id": "76fa8bea9669ddca",
      "name": "Solar Almere",
      "city": "Amsterdam",
      "country": "NL",
      "lat": 52.38235,
      "lng": 5.0024,
      "site_type": "business"
    }
  },
  {
    "name": "vanhees",
    "city": "Utrecht",
    "country": "NL",
    "lat": 52.07208,
    "lng": 5.29031,
    "relay": "https://relay-nl-utrecht.macula.io:4433",
    "site": {
      "site_id": "b37ce6e52c2259a5",
      "name": "Vanhees",
      "city": "Utrecht",
      "country": "NL",
      "lat": 52.07208,
      "lng": 5.29031,
      "site_type": "household"
    }
  },
  {
    "name": "bogaert",
    "city": "Breda",
    "country": "NL",
    "lat": 51.57146,
    "lng": 4.81807,
    "relay": "https://relay-nl-breda.macula.io:4433",
    "site": {
      "site_id": "d372ecb7de824142",
      "name": "Bogaert",
      "city": "Breda",
      "country": "NL",
      "lat": 51.57146,
      "lng": 4.81807,
      "site_type": "household"
    }
  },
  {
    "name": "diamant-exchange",
    "city": "Brussels",
    "country": "BE",
    "lat": 50.85015,
    "lng": 4.31262,
    "relay": "https://relay-be-brussels.macula.io:4433",
    "site": {
      "site_id": "fec515a1572c999c",
      "name": "Diamant Exchange",
      "city": "Brussels",
      "country": "BE",
      "lat": 50.85015,
      "lng": 4.31262,
      "site_type": "business"
    }
  },
  {
    "name": "brasserie-leopold",
    "city": "Rotterdam",
    "country": "NL",
    "lat": 51.92897,
    "lng": 4.52302,
    "relay": "https://relay-nl-rotterdam.macula.io:4433",
    "site": {
      "site_id": "bfd8aa9cb236ee2d",
      "name": "Brasserie Leopold",
      "city": "Rotterdam",
      "country": "NL",
      "lat": 51.92897,
      "lng": 4.52302,
      "site_type": "business"
    }
  },
  {
    "name": "delcourt",
    "city": "Antwerp",
    "country": "BE",
    "lat": 51.2222,
    "lng": 4.23436,
    "relay": "https://relay-be-antwerp.macula.io:4433",
    "site": {
      "site_id": "9902b4c5530be756",
      "name": "Delcourt",
      "city": "Antwerp",
      "country": "BE",
      "lat": 51.2222,
      "lng": 4.23436,
      "site_type": "household"
    }
  },
  {
    "name": "dams",
    "city": "Mons",
    "country": "BE",
    "lat": 50.49951,
    "lng": 3.84325,
    "relay": "https://relay-be-mons.macula.io:4433",
    "site": {
      "site_id": "bcff590afca860e8",
      "name": "Dams",
      "city": "Mons",
      "country": "BE",
      "lat": 50.49951,
      "lng": 3.84325,
      "site_type": "household"
    }
  },
  {
    "name": "librairie-mols",
    "city": "Verviers",
    "country": "BE",
    "lat": 50.65037,
    "lng": 5.96237,
    "relay": "https://relay-be-verviers.macula.io:4433",
    "site": {
      "site_id": "4abb2c131a62442a",
      "name": "Librairie Mols",
      "city": "Verviers",
      "country": "BE",
      "lat": 50.65037,
      "lng": 5.96237,
      "site_type": "business"
    }
  },
  {
    "name": "renard",
    "city": "Tournai",
    "country": "BE",
    "lat": 50.55239,
    "lng": 3.40689,
    "relay": "https://relay-be-tournai.macula.io:4433",
    "site": {
      "site_id": "52f0af4e18866225",
      "name": "Renard",
      "city": "Tournai",
      "country": "BE",
      "lat": 50.55239,
      "lng": 3.40689,
      "site_type": "household"
    }
  },
  {
    "name": "wuyts",
    "city": "The Hague",
    "country": "NL",
    "lat": 52.11211,
    "lng": 4.41987,
    "relay": "https://relay-nl-the-hague.macula.io:4433",
    "site": {
      "site_id": "ecd126a63dfde7c2",
      "name": "Wuyts",
      "city": "The Hague",
      "country": "NL",
      "lat": 52.11211,
      "lng": 4.41987,
      "site_type": "household"
    }
  },
  {
    "name": "vos-nl",
    "city": "Liege",
    "country": "BE",
    "lat": 50.6368,
    "lng": 5.51178,
    "relay": "https://relay-be-liege.macula.io:4433",
    "site": {
      "site_id": "a1a885312c062d4e",
      "name": "Vos Nl",
      "city": "Liege",
      "country": "BE",
      "lat": 50.6368,
      "lng": 5.51178,
      "site_type": "household"
    }
  },
  {
    "name": "renson",
    "city": "Lommel",
    "country": "BE",
    "lat": 51.24418,
    "lng": 5.33178,
    "relay": "https://relay-be-lommel.macula.io:4433",
    "site": {
      "site_id": "d038db33e25e3433",
      "name": "Renson",
      "city": "Lommel",
      "country": "BE",
      "lat": 51.24418,
      "lng": 5.33178,
      "site_type": "household"
    }
  },
  {
    "name": "vandenberghe",
    "city": "Lommel",
    "country": "BE",
    "lat": 51.13915,
    "lng": 5.23898,
    "relay": "https://relay-be-lommel.macula.io:4433",
    "site": {
      "site_id": "008f47297bd5a51f",
      "name": "Vandenberghe",
      "city": "Lommel",
      "country": "BE",
      "lat": 51.13915,
      "lng": 5.23898,
      "site_type": "household"
    }
  },
  {
    "name": "de-jong",
    "city": "Utrecht",
    "country": "NL",
    "lat": 52.01789,
    "lng": 5.21136,
    "relay": "https://relay-nl-utrecht.macula.io:4433",
    "site": {
      "site_id": "3ee889a57ea589b1",
      "name": "De Jong",
      "city": "Utrecht",
      "country": "NL",
      "lat": 52.01789,
      "lng": 5.21136,
      "site_type": "household"
    }
  },
  {
    "name": "baert",
    "city": "Ghent",
    "country": "BE",
    "lat": 50.97182,
    "lng": 3.63168,
    "relay": "https://relay-be-ghent.macula.io:4433",
    "site": {
      "site_id": "78725db13d9699c8",
      "name": "Baert",
      "city": "Ghent",
      "country": "BE",
      "lat": 50.97182,
      "lng": 3.63168,
      "site_type": "household"
    }
  },
  {
    "name": "immo-trust",
    "city": "Genk",
    "country": "BE",
    "lat": 51.0412,
    "lng": 5.59263,
    "relay": "https://relay-be-genk.macula.io:4433",
    "site": {
      "site_id": "223eb77ce0981046",
      "name": "Immo Trust",
      "city": "Genk",
      "country": "BE",
      "lat": 51.0412,
      "lng": 5.59263,
      "site_type": "business"
    }
  },
  {
    "name": "meyer",
    "city": "Liege",
    "country": "BE",
    "lat": 50.65249,
    "lng": 5.45686,
    "relay": "https://relay-be-liege.macula.io:4433",
    "site": {
      "site_id": "826b8cbea662296c",
      "name": "Meyer",
      "city": "Liege",
      "country": "BE",
      "lat": 50.65249,
      "lng": 5.45686,
      "site_type": "household"
    }
  },
  {
    "name": "lambert",
    "city": "Antwerp",
    "country": "BE",
    "lat": 51.17882,
    "lng": 4.49505,
    "relay": "https://relay-be-antwerp.macula.io:4433",
    "site": {
      "site_id": "b4eed54ea7b8e522",
      "name": "Lambert",
      "city": "Antwerp",
      "country": "BE",
      "lat": 51.17882,
      "lng": 4.49505,
      "site_type": "household"
    }
  },
  {
    "name": "wauters",
    "city": "The Hague",
    "country": "NL",
    "lat": 52.14946,
    "lng": 4.36012,
    "relay": "https://relay-nl-the-hague.macula.io:4433",
    "site": {
      "site_id": "d64d2d95669f281f",
      "name": "Wauters",
      "city": "The Hague",
      "country": "NL",
      "lat": 52.14946,
      "lng": 4.36012,
      "site_type": "household"
    }
  },
  {
    "name": "de-boer",
    "city": "Brussels",
    "country": "BE",
    "lat": 50.90771,
    "lng": 4.22583,
    "relay": "https://relay-be-brussels.macula.io:4433",
    "site": {
      "site_id": "96465dfbead417e2",
      "name": "De Boer",
      "city": "Brussels",
      "country": "BE",
      "lat": 50.90771,
      "lng": 4.22583,
      "site_type": "household"
    }
  },
  {
    "name": "bos",
    "city": "Liege",
    "country": "BE",
    "lat": 50.56973,
    "lng": 5.62131,
    "relay": "https://relay-be-liege.macula.io:4433",
    "site": {
      "site_id": "49d20ae0339eefeb",
      "name": "Bos",
      "city": "Liege",
      "country": "BE",
      "lat": 50.56973,
      "lng": 5.62131,
      "site_type": "household"
    }
  },
  {
    "name": "cools",
    "city": "Leiden",
    "country": "NL",
    "lat": 52.14119,
    "lng": 4.38486,
    "relay": "https://relay-nl-leiden.macula.io:4433",
    "site": {
      "site_id": "6ace7c10952f0943",
      "name": "Cools",
      "city": "Leiden",
      "country": "NL",
      "lat": 52.14119,
      "lng": 4.38486,
      "site_type": "household"
    }
  },
  {
    "name": "jansen",
    "city": "Luxembourg",
    "country": "LU",
    "lat": 49.66657,
    "lng": 6.11324,
    "relay": "https://relay-lu-luxembourg.macula.io:4433",
    "site": {
      "site_id": "59dfe5ab02c1c95e",
      "name": "Jansen",
      "city": "Luxembourg",
      "country": "LU",
      "lat": 49.66657,
      "lng": 6.11324,
      "site_type": "household"
    }
  },
  {
    "name": "wafel-paradijs",
    "city": "Venlo",
    "country": "NL",
    "lat": 51.27455,
    "lng": 6.20685,
    "relay": "https://relay-nl-venlo.macula.io:4433",
    "site": {
      "site_id": "50f7f3a24236926f",
      "name": "Wafel Paradijs",
      "city": "Venlo",
      "country": "NL",
      "lat": 51.27455,
      "lng": 6.20685,
      "site_type": "business"
    }
  },
  {
    "name": "agritech-wageningen",
    "city": "Dendermonde",
    "country": "BE",
    "lat": 51.00489,
    "lng": 4.17693,
    "relay": "https://relay-be-dendermonde.macula.io:4433",
    "site": {
      "site_id": "8b1b090056b8fca1",
      "name": "Agritech Wageningen",
      "city": "Dendermonde",
      "country": "BE",
      "lat": 51.00489,
      "lng": 4.17693,
      "site_type": "business"
    }
  },
  {
    "name": "visser",
    "city": "Ghent",
    "country": "BE",
    "lat": 51.04118,
    "lng": 3.83097,
    "relay": "https://relay-be-ghent.macula.io:4433",
    "site": {
      "site_id": "3c24adc594f976e9",
      "name": "Visser",
      "city": "Ghent",
      "country": "BE",
      "lat": 51.04118,
      "lng": 3.83097,
      "site_type": "household"
    }
  },
  {
    "name": "chocolade-praline",
    "city": "Leiden",
    "country": "NL",
    "lat": 52.0801,
    "lng": 4.43579,
    "relay": "https://relay-nl-leiden.macula.io:4433",
    "site": {
      "site_id": "c478c2656b2470a9",
      "name": "Chocolade Praline",
      "city": "Leiden",
      "country": "NL",
      "lat": 52.0801,
      "lng": 4.43579,
      "site_type": "business"
    }
  },
  {
    "name": "de-wolf",
    "city": "Amsterdam",
    "country": "NL",
    "lat": 52.46571,
    "lng": 4.93339,
    "relay": "https://relay-nl-amsterdam.macula.io:4433",
    "site": {
      "site_id": "72dbba95f2005295",
      "name": "De Wolf",
      "city": "Amsterdam",
      "country": "NL",
      "lat": 52.46571,
      "lng": 4.93339,
      "site_type": "household"
    }
  },
  {
    "name": "cloudnine-tech",
    "city": "Hasselt",
    "country": "BE",
    "lat": 50.8665,
    "lng": 5.34548,
    "relay": "https://relay-be-hasselt.macula.io:4433",
    "site": {
      "site_id": "c0cd35bae42f0bb4",
      "name": "Cloudnine Tech",
      "city": "Hasselt",
      "country": "BE",
      "lat": 50.8665,
      "lng": 5.34548,
      "site_type": "business"
    }
  },
  {
    "name": "smit",
    "city": "Wavre",
    "country": "BE",
    "lat": 50.66117,
    "lng": 4.74638,
    "relay": "https://relay-be-wavre.macula.io:4433",
    "site": {
      "site_id": "579fdc6ac44f4a0e",
      "name": "Smit",
      "city": "Wavre",
      "country": "BE",
      "lat": 50.66117,
      "lng": 4.74638,
      "site_type": "household"
    }
  },
  {
    "name": "brouwerij-amsterdam",
    "city": "Lier",
    "country": "BE",
    "lat": 51.05812,
    "lng": 4.52748,
    "relay": "https://relay-be-lier.macula.io:4433",
    "site": {
      "site_id": "0deb7b615939c8d5",
      "name": "Brouwerij Amsterdam",
      "city": "Lier",
      "country": "BE",
      "lat": 51.05812,
      "lng": 4.52748,
      "site_type": "business"
    }
  },
  {
    "name": "pieters",
    "city": "Kortrijk",
    "country": "BE",
    "lat": 50.90668,
    "lng": 3.33931,
    "relay": "https://relay-be-kortrijk.macula.io:4433",
    "site": {
      "site_id": "1f6abe20a5038adf",
      "name": "Pieters",
      "city": "Kortrijk",
      "country": "BE",
      "lat": 50.90668,
      "lng": 3.33931,
      "site_type": "household"
    }
  },
  {
    "name": "peeters",
    "city": "Heerlen",
    "country": "NL",
    "lat": 50.83836,
    "lng": 5.95075,
    "relay": "https://relay-nl-heerlen.macula.io:4433",
    "site": {
      "site_id": "95df5bf960823857",
      "name": "Peeters",
      "city": "Heerlen",
      "country": "NL",
      "lat": 50.83836,
      "lng": 5.95075,
      "site_type": "household"
    }
  },
  {
    "name": "gilles",
    "city": "Leeuwarden",
    "country": "NL",
    "lat": 53.15512,
    "lng": 5.69955,
    "relay": "https://relay-nl-leeuwarden.macula.io:4433",
    "site": {
      "site_id": "fe064ba41ff5ee96",
      "name": "Gilles",
      "city": "Leeuwarden",
      "country": "NL",
      "lat": 53.15512,
      "lng": 5.69955,
      "site_type": "household"
    }
  },
  {
    "name": "plomberie-thomas",
    "city": "Brussels",
    "country": "BE",
    "lat": 50.89274,
    "lng": 4.39619,
    "relay": "https://relay-be-brussels.macula.io:4433",
    "site": {
      "site_id": "f4a926b11194620c",
      "name": "Plomberie Thomas",
      "city": "Brussels",
      "country": "BE",
      "lat": 50.89274,
      "lng": 4.39619,
      "site_type": "business"
    }
  },
  {
    "name": "hoffmann",
    "city": "Genk",
    "country": "BE",
    "lat": 50.93649,
    "lng": 5.62533,
    "relay": "https://relay-be-genk.macula.io:4433",
    "site": {
      "site_id": "69c621a8ecb995fb",
      "name": "Hoffmann",
      "city": "Genk",
      "country": "BE",
      "lat": 50.93649,
      "lng": 5.62533,
      "site_type": "household"
    }
  },
  {
    "name": "lenaerts",
    "city": "Leeuwarden",
    "country": "NL",
    "lat": 53.14136,
    "lng": 5.76501,
    "relay": "https://relay-nl-leeuwarden.macula.io:4433",
    "site": {
      "site_id": "ae48acab8fbe144e",
      "name": "Lenaerts",
      "city": "Leeuwarden",
      "country": "NL",
      "lat": 53.14136,
      "lng": 5.76501,
      "site_type": "household"
    }
  },
  {
    "name": "schouten",
    "city": "Amsterdam",
    "country": "NL",
    "lat": 52.32413,
    "lng": 4.99978,
    "relay": "https://relay-nl-amsterdam.macula.io:4433",
    "site": {
      "site_id": "6bbf53953682a045",
      "name": "Schouten",
      "city": "Amsterdam",
      "country": "NL",
      "lat": 52.32413,
      "lng": 4.99978,
      "site_type": "household"
    }
  },
  {
    "name": "bloemenveiling-aalsmeer",
    "city": "Beveren",
    "country": "BE",
    "lat": 51.21047,
    "lng": 4.31714,
    "relay": "https://relay-be-beveren.macula.io:4433",
    "site": {
      "site_id": "0f9fd8bde1c76272",
      "name": "Bloemenveiling Aalsmeer",
      "city": "Beveren",
      "country": "BE",
      "lat": 51.21047,
      "lng": 4.31714,
      "site_type": "business"
    }
  },
  {
    "name": "de-bruyne",
    "city": "Ostend",
    "country": "BE",
    "lat": 51.1881,
    "lng": 3.05625,
    "relay": "https://relay-be-ostend.macula.io:4433",
    "site": {
      "site_id": "f2f266f68930dccb",
      "name": "De Bruyne",
      "city": "Ostend",
      "country": "BE",
      "lat": 51.1881,
      "lng": 3.05625,
      "site_type": "household"
    }
  },
  {
    "name": "boucherie-dubois",
    "city": "Kortrijk",
    "country": "BE",
    "lat": 50.86126,
    "lng": 3.40218,
    "relay": "https://relay-be-kortrijk.macula.io:4433",
    "site": {
      "site_id": "d1480d8be3a505c5",
      "name": "Boucherie Dubois",
      "city": "Kortrijk",
      "country": "BE",
      "lat": 50.86126,
      "lng": 3.40218,
      "site_type": "business"
    }
  },
  {
    "name": "banque-luxembourg",
    "city": "Lier",
    "country": "BE",
    "lat": 51.11411,
    "lng": 4.40192,
    "relay": "https://relay-be-lier.macula.io:4433",
    "site": {
      "site_id": "21a36276bdfb70f3",
      "name": "Banque Luxembourg",
      "city": "Lier",
      "country": "BE",
      "lat": 51.11411,
      "lng": 4.40192,
      "site_type": "business"
    }
  },
  {
    "name": "brasserie-oud-brugge",
    "city": "Luxembourg",
    "country": "LU",
    "lat": 49.52384,
    "lng": 6.03751,
    "relay": "https://relay-lu-luxembourg.macula.io:4433",
    "site": {
      "site_id": "8646dcda518b0e6d",
      "name": "Brasserie Oud Brugge",
      "city": "Luxembourg",
      "country": "LU",
      "lat": 49.52384,
      "lng": 6.03751,
      "site_type": "business"
    }
  },
  {
    "name": "architect-bogaert",
    "city": "Ostend",
    "country": "BE",
    "lat": 51.20679,
    "lng": 3.01925,
    "relay": "https://relay-be-ostend.macula.io:4433",
    "site": {
      "site_id": "78d04976021bca77",
      "name": "Architect Bogaert",
      "city": "Ostend",
      "country": "BE",
      "lat": 51.20679,
      "lng": 3.01925,
      "site_type": "business"
    }
  },
  {
    "name": "beckers",
    "city": "Vilvoorde",
    "country": "BE",
    "lat": 51.0065,
    "lng": 4.43593,
    "relay": "https://relay-be-vilvoorde.macula.io:4433",
    "site": {
      "site_id": "b54e02dd1caa577f",
      "name": "Beckers",
      "city": "Vilvoorde",
      "country": "BE",
      "lat": 51.0065,
      "lng": 4.43593,
      "site_type": "household"
    }
  },
  {
    "name": "van-hoeck",
    "city": "Seraing",
    "country": "BE",
    "lat": 50.60752,
    "lng": 5.51122,
    "relay": "https://relay-be-seraing.macula.io:4433",
    "site": {
      "site_id": "921699c62ae9f228",
      "name": "Van Hoeck",
      "city": "Seraing",
      "country": "BE",
      "lat": 50.60752,
      "lng": 5.51122,
      "site_type": "household"
    }
  },
  {
    "name": "michiels",
    "city": "Herentals",
    "country": "BE",
    "lat": 51.16404,
    "lng": 4.77634,
    "relay": "https://relay-be-herentals.macula.io:4433",
    "site": {
      "site_id": "0b8cadb733118030",
      "name": "Michiels",
      "city": "Herentals",
      "country": "BE",
      "lat": 51.16404,
      "lng": 4.77634,
      "site_type": "household"
    }
  },
  {
    "name": "goossens",
    "city": "Gouda",
    "country": "NL",
    "lat": 52.02107,
    "lng": 4.72219,
    "relay": "https://relay-nl-gouda.macula.io:4433",
    "site": {
      "site_id": "b4111ceba5acbab5",
      "name": "Goossens",
      "city": "Gouda",
      "country": "NL",
      "lat": 52.02107,
      "lng": 4.72219,
      "site_type": "household"
    }
  },
  {
    "name": "wouters",
    "city": "Waregem",
    "country": "BE",
    "lat": 50.80847,
    "lng": 3.44613,
    "relay": "https://relay-be-waregem.macula.io:4433",
    "site": {
      "site_id": "63ecbbfb3d49fa7c",
      "name": "Wouters",
      "city": "Waregem",
      "country": "BE",
      "lat": 50.80847,
      "lng": 3.44613,
      "site_type": "household"
    }
  },
  {
    "name": "van-der-heijden",
    "city": "Kortrijk",
    "country": "BE",
    "lat": 50.88095,
    "lng": 3.2464,
    "relay": "https://relay-be-kortrijk.macula.io:4433",
    "site": {
      "site_id": "64ca4f87a2852c74",
      "name": "Van Der Heijden",
      "city": "Kortrijk",
      "country": "BE",
      "lat": 50.88095,
      "lng": 3.2464,
      "site_type": "household"
    }
  },
  {
    "name": "atelier-simon",
    "city": "Maastricht",
    "country": "NL",
    "lat": 50.87223,
    "lng": 5.71976,
    "relay": "https://relay-nl-maastricht.macula.io:4433",
    "site": {
      "site_id": "c607222ae136edb9",
      "name": "Atelier Simon",
      "city": "Maastricht",
      "country": "NL",
      "lat": 50.87223,
      "lng": 5.71976,
      "site_type": "business"
    }
  },
  {
    "name": "stevens",
    "city": "Gouda",
    "country": "NL",
    "lat": 52.08815,
    "lng": 4.77305,
    "relay": "https://relay-nl-gouda.macula.io:4433",
    "site": {
      "site_id": "c292c8978ccd6c23",
      "name": "Stevens",
      "city": "Gouda",
      "country": "NL",
      "lat": 52.08815,
      "lng": 4.77305,
      "site_type": "household"
    }
  },
  {
    "name": "elektro-jacobs",
    "city": "Antwerp",
    "country": "BE",
    "lat": 51.27577,
    "lng": 4.52925,
    "relay": "https://relay-be-antwerp.macula.io:4433",
    "site": {
      "site_id": "96616bcdcf118062",
      "name": "Elektro Jacobs",
      "city": "Antwerp",
      "country": "BE",
      "lat": 51.27577,
      "lng": 4.52925,
      "site_type": "business"
    }
  },
  {
    "name": "fietswinkel-utrecht",
    "city": "Lokeren",
    "country": "BE",
    "lat": 51.15063,
    "lng": 4.03275,
    "relay": "https://relay-be-lokeren.macula.io:4433",
    "site": {
      "site_id": "11760187f18a7c1a",
      "name": "Fietswinkel Utrecht",
      "city": "Lokeren",
      "country": "BE",
      "lat": 51.15063,
      "lng": 4.03275,
      "site_type": "business"
    }
  },
  {
    "name": "desmet",
    "city": "Breda",
    "country": "NL",
    "lat": 51.49643,
    "lng": 4.67249,
    "relay": "https://relay-nl-breda.macula.io:4433",
    "site": {
      "site_id": "de00f06592cb7da8",
      "name": "Desmet",
      "city": "Breda",
      "country": "NL",
      "lat": 51.49643,
      "lng": 4.67249,
      "site_type": "household"
    }
  },
  {
    "name": "thijs",
    "city": "Sint-Niklaas",
    "country": "BE",
    "lat": 51.16712,
    "lng": 4.05238,
    "relay": "https://relay-be-sint-niklaas.macula.io:4433",
    "site": {
      "site_id": "0963a9f8bc173434",
      "name": "Thijs",
      "city": "Sint-Niklaas",
      "country": "BE",
      "lat": 51.16712,
      "lng": 4.05238,
      "site_type": "household"
    }
  },
  {
    "name": "buelens",
    "city": "Enschede",
    "country": "NL",
    "lat": 52.19719,
    "lng": 7.02313,
    "relay": "https://relay-nl-enschede.macula.io:4433",
    "site": {
      "site_id": "1c86d808ddc486ae",
      "name": "Buelens",
      "city": "Enschede",
      "country": "NL",
      "lat": 52.19719,
      "lng": 7.02313,
      "site_type": "household"
    }
  },
  {
    "name": "bernaerts",
    "city": "Nijmegen",
    "country": "NL",
    "lat": 51.78355,
    "lng": 5.96674,
    "relay": "https://relay-nl-nijmegen.macula.io:4433",
    "site": {
      "site_id": "db690832ea14f786",
      "name": "Bernaerts",
      "city": "Nijmegen",
      "country": "NL",
      "lat": 51.78355,
      "lng": 5.96674,
      "site_type": "household"
    }
  },
  {
    "name": "pirard",
    "city": "Bruges",
    "country": "BE",
    "lat": 51.25593,
    "lng": 3.19926,
    "relay": "https://relay-be-bruges.macula.io:4433",
    "site": {
      "site_id": "61884462f09967b0",
      "name": "Pirard",
      "city": "Bruges",
      "country": "BE",
      "lat": 51.25593,
      "lng": 3.19926,
      "site_type": "household"
    }
  },
  {
    "name": "claes",
    "city": "Aalst",
    "country": "BE",
    "lat": 50.93547,
    "lng": 4.08798,
    "relay": "https://relay-be-aalst.macula.io:4433",
    "site": {
      "site_id": "5d1b7b5aaff6dbad",
      "name": "Claes",
      "city": "Aalst",
      "country": "BE",
      "lat": 50.93547,
      "lng": 4.08798,
      "site_type": "household"
    }
  },
  {
    "name": "de-cock",
    "city": "Verviers",
    "country": "BE",
    "lat": 50.60194,
    "lng": 5.90451,
    "relay": "https://relay-be-verviers.macula.io:4433",
    "site": {
      "site_id": "92d8f03aff01557c",
      "name": "De Cock",
      "city": "Verviers",
      "country": "BE",
      "lat": 50.60194,
      "lng": 5.90451,
      "site_type": "household"
    }
  },
  {
    "name": "neural-labs-leuven",
    "city": "Brussels",
    "country": "BE",
    "lat": 50.77496,
    "lng": 4.42899,
    "relay": "https://relay-be-brussels.macula.io:4433",
    "site": {
      "site_id": "c05b3a407068ca78",
      "name": "Neural Labs Leuven",
      "city": "Brussels",
      "country": "BE",
      "lat": 50.77496,
      "lng": 4.42899,
      "site_type": "business"
    }
  },
  {
    "name": "maes",
    "city": "Delft",
    "country": "NL",
    "lat": 51.99827,
    "lng": 4.43878,
    "relay": "https://relay-nl-delft.macula.io:4433",
    "site": {
      "site_id": "3db352c176de3456",
      "name": "Maes",
      "city": "Delft",
      "country": "NL",
      "lat": 51.99827,
      "lng": 4.43878,
      "site_type": "household"
    }
  },
  {
    "name": "geerts",
    "city": "Tongeren",
    "country": "BE",
    "lat": 50.75929,
    "lng": 5.35438,
    "relay": "https://relay-be-tongeren.macula.io:4433",
    "site": {
      "site_id": "4fc303789df08949",
      "name": "Geerts",
      "city": "Tongeren",
      "country": "BE",
      "lat": 50.75929,
      "lng": 5.35438,
      "site_type": "household"
    }
  },
  {
    "name": "dubois",
    "city": "Roeselare",
    "country": "BE",
    "lat": 51.0321,
    "lng": 3.05433,
    "relay": "https://relay-be-roeselare.macula.io:4433",
    "site": {
      "site_id": "d9536a03a8e63d72",
      "name": "Dubois",
      "city": "Roeselare",
      "country": "BE",
      "lat": 51.0321,
      "lng": 3.05433,
      "site_type": "household"
    }
  },
  {
    "name": "van-dyck",
    "city": "Ostend",
    "country": "BE",
    "lat": 51.15429,
    "lng": 2.97763,
    "relay": "https://relay-be-ostend.macula.io:4433",
    "site": {
      "site_id": "acb392e739ab11bc",
      "name": "Van Dyck",
      "city": "Ostend",
      "country": "BE",
      "lat": 51.15429,
      "lng": 2.97763,
      "site_type": "household"
    }
  },
  {
    "name": "dekker",
    "city": "Namur",
    "country": "BE",
    "lat": 50.54986,
    "lng": 4.78796,
    "relay": "https://relay-be-namur.macula.io:4433",
    "site": {
      "site_id": "92c6e443a6c4f93b",
      "name": "Dekker",
      "city": "Namur",
      "country": "BE",
      "lat": 50.54986,
      "lng": 4.78796,
      "site_type": "household"
    }
  },
  {
    "name": "aerts",
    "city": "Ghent",
    "country": "BE",
    "lat": 51.14387,
    "lng": 3.77344,
    "relay": "https://relay-be-ghent.macula.io:4433",
    "site": {
      "site_id": "eca3c26a49c10838",
      "name": "Aerts",
      "city": "Ghent",
      "country": "BE",
      "lat": 51.14387,
      "lng": 3.77344,
      "site_type": "household"
    }
  },
  {
    "name": "havenlogistiek-rotterdam",
    "city": "Ypres",
    "country": "BE",
    "lat": 50.78323,
    "lng": 2.92954,
    "relay": "https://relay-be-ypres.macula.io:4433",
    "site": {
      "site_id": "e8329d114c1cc149",
      "name": "Havenlogistiek Rotterdam",
      "city": "Ypres",
      "country": "BE",
      "lat": 50.78323,
      "lng": 2.92954,
      "site_type": "business"
    }
  },
  {
    "name": "dumont",
    "city": "Lokeren",
    "country": "BE",
    "lat": 51.0717,
    "lng": 3.8301,
    "relay": "https://relay-be-lokeren.macula.io:4433",
    "site": {
      "site_id": "f5f9ea88a45e321e",
      "name": "Dumont",
      "city": "Lokeren",
      "country": "BE",
      "lat": 51.0717,
      "lng": 3.8301,
      "site_type": "household"
    }
  },
  {
    "name": "somers",
    "city": "Hilversum",
    "country": "NL",
    "lat": 52.15992,
    "lng": 5.14747,
    "relay": "https://relay-nl-hilversum.macula.io:4433",
    "site": {
      "site_id": "0af49dddee490ea6",
      "name": "Somers",
      "city": "Hilversum",
      "country": "NL",
      "lat": 52.15992,
      "lng": 5.14747,
      "site_type": "household"
    }
  },
  {
    "name": "martin",
    "city": "Antwerp",
    "country": "BE",
    "lat": 51.29058,
    "lng": 4.30779,
    "relay": "https://relay-be-antwerp.macula.io:4433",
    "site": {
      "site_id": "853f3725da1b4847",
      "name": "Martin",
      "city": "Antwerp",
      "country": "BE",
      "lat": 51.29058,
      "lng": 4.30779,
      "site_type": "household"
    }
  },
  {
    "name": "dataworks-bv",
    "city": "Turnhout",
    "country": "BE",
    "lat": 51.37354,
    "lng": 4.96179,
    "relay": "https://relay-be-turnhout.macula.io:4433",
    "site": {
      "site_id": "4f17744f62b222e8",
      "name": "Dataworks Bv",
      "city": "Turnhout",
      "country": "BE",
      "lat": 51.37354,
      "lng": 4.96179,
      "site_type": "business"
    }
  },
  {
    "name": "laurent",
    "city": "Brussels",
    "country": "BE",
    "lat": 50.93894,
    "lng": 4.35132,
    "relay": "https://relay-be-brussels.macula.io:4433",
    "site": {
      "site_id": "aa147b0d156293a0",
      "name": "Laurent",
      "city": "Brussels",
      "country": "BE",
      "lat": 50.93894,
      "lng": 4.35132,
      "site_type": "household"
    }
  },
  {
    "name": "fromagerie-laurent",
    "city": "Dendermonde",
    "country": "BE",
    "lat": 50.94459,
    "lng": 4.03118,
    "relay": "https://relay-be-dendermonde.macula.io:4433",
    "site": {
      "site_id": "bcfe3a63010f92f9",
      "name": "Fromagerie Laurent",
      "city": "Dendermonde",
      "country": "BE",
      "lat": 50.94459,
      "lng": 4.03118,
      "site_type": "business"
    }
  },
  {
    "name": "govaerts",
    "city": "Hasselt",
    "country": "BE",
    "lat": 50.84493,
    "lng": 5.36302,
    "relay": "https://relay-be-hasselt.macula.io:4433",
    "site": {
      "site_id": "e9d9737058944b0b",
      "name": "Govaerts",
      "city": "Hasselt",
      "country": "BE",
      "lat": 50.84493,
      "lng": 5.36302,
      "site_type": "household"
    }
  },
  {
    "name": "frituur-de-hoek",
    "city": "Lier",
    "country": "BE",
    "lat": 51.16561,
    "lng": 4.68978,
    "relay": "https://relay-be-lier.macula.io:4433",
    "site": {
      "site_id": "3d3e8c374e7b0528",
      "name": "Frituur De Hoek",
      "city": "Lier",
      "country": "BE",
      "lat": 51.16561,
      "lng": 4.68978,
      "site_type": "business"
    }
  },
  {
    "name": "brouwers",
    "city": "Gouda",
    "country": "NL",
    "lat": 52.08422,
    "lng": 4.68723,
    "relay": "https://relay-nl-gouda.macula.io:4433",
    "site": {
      "site_id": "194c1722ddde774b",
      "name": "Brouwers",
      "city": "Gouda",
      "country": "NL",
      "lat": 52.08422,
      "lng": 4.68723,
      "site_type": "household"
    }
  },
  {
    "name": "traiteur-renard",
    "city": "Groningen",
    "country": "NL",
    "lat": 53.17516,
    "lng": 6.69452,
    "relay": "https://relay-nl-groningen.macula.io:4433",
    "site": {
      "site_id": "27f586982a3fffd2",
      "name": "Traiteur Renard",
      "city": "Groningen",
      "country": "NL",
      "lat": 53.17516,
      "lng": 6.69452,
      "site_type": "business"
    }
  },
  {
    "name": "leemans",
    "city": "Charleroi",
    "country": "BE",
    "lat": 50.36752,
    "lng": 4.5685,
    "relay": "https://relay-be-charleroi.macula.io:4433",
    "site": {
      "site_id": "80c14cca6932806d",
      "name": "Leemans",
      "city": "Charleroi",
      "country": "BE",
      "lat": 50.36752,
      "lng": 4.5685,
      "site_type": "household"
    }
  },
  {
    "name": "mertens",
    "city": "Ypres",
    "country": "BE",
    "lat": 50.81619,
    "lng": 2.79338,
    "relay": "https://relay-be-ypres.macula.io:4433",
    "site": {
      "site_id": "5f5c2d7895ef1f75",
      "name": "Mertens",
      "city": "Ypres",
      "country": "BE",
      "lat": 50.81619,
      "lng": 2.79338,
      "site_type": "household"
    }
  },
  {
    "name": "cornet",
    "city": "Brussels",
    "country": "BE",
    "lat": 50.7921,
    "lng": 4.37859,
    "relay": "https://relay-be-brussels.macula.io:4433",
    "site": {
      "site_id": "5cb9c5461fee59fc",
      "name": "Cornet",
      "city": "Brussels",
      "country": "BE",
      "lat": 50.7921,
      "lng": 4.37859,
      "site_type": "household"
    }
  },
  {
    "name": "techpark-eindhoven",
    "city": "Amsterdam",
    "country": "NL",
    "lat": 52.43851,
    "lng": 5.00769,
    "relay": "https://relay-nl-amsterdam.macula.io:4433",
    "site": {
      "site_id": "d8220de329114cbc",
      "name": "Techpark Eindhoven",
      "city": "Amsterdam",
      "country": "NL",
      "lat": 52.43851,
      "lng": 5.00769,
      "site_type": "business"
    }
  },
  {
    "name": "de-meyer",
    "city": "Almere",
    "country": "NL",
    "lat": 52.35246,
    "lng": 5.25935,
    "relay": "https://relay-nl-almere.macula.io:4433",
    "site": {
      "site_id": "2a1684246a6f7645",
      "name": "De Meyer",
      "city": "Almere",
      "country": "NL",
      "lat": 52.35246,
      "lng": 5.25935,
      "site_type": "household"
    }
  },
  {
    "name": "thomas",
    "city": "Leiden",
    "country": "NL",
    "lat": 52.12006,
    "lng": 4.53657,
    "relay": "https://relay-nl-leiden.macula.io:4433",
    "site": {
      "site_id": "44339eb619b84efe",
      "name": "Thomas",
      "city": "Leiden",
      "country": "NL",
      "lat": 52.12006,
      "lng": 4.53657,
      "site_type": "household"
    }
  },
  {
    "name": "vermeersch",
    "city": "The Hague",
    "country": "NL",
    "lat": 52.01573,
    "lng": 4.21421,
    "relay": "https://relay-nl-the-hague.macula.io:4433",
    "site": {
      "site_id": "f102f01366c96a0b",
      "name": "Vermeersch",
      "city": "The Hague",
      "country": "NL",
      "lat": 52.01573,
      "lng": 4.21421,
      "site_type": "household"
    }
  },
  {
    "name": "patisserie-duchene",
    "city": "Enschede",
    "country": "NL",
    "lat": 52.22456,
    "lng": 6.81424,
    "relay": "https://relay-nl-enschede.macula.io:4433",
    "site": {
      "site_id": "5d1b188b01d24903",
      "name": "Patisserie Duchene",
      "city": "Enschede",
      "country": "NL",
      "lat": 52.22456,
      "lng": 6.81424,
      "site_type": "business"
    }
  },
  {
    "name": "data-center-amsterdam",
    "city": "Leuven",
    "country": "BE",
    "lat": 50.94409,
    "lng": 4.65072,
    "relay": "https://relay-be-leuven.macula.io:4433",
    "site": {
      "site_id": "85dc4bc2b02d5d8e",
      "name": "Data Center Amsterdam",
      "city": "Leuven",
      "country": "BE",
      "lat": 50.94409,
      "lng": 4.65072,
      "site_type": "business"
    }
  },
  {
    "name": "van-der-linden",
    "city": "Venlo",
    "country": "NL",
    "lat": 51.44748,
    "lng": 6.29045,
    "relay": "https://relay-nl-venlo.macula.io:4433",
    "site": {
      "site_id": "4998bc5a4c2555b1",
      "name": "Van Der Linden",
      "city": "Venlo",
      "country": "NL",
      "lat": 51.44748,
      "lng": 6.29045,
      "site_type": "household"
    }
  },
  {
    "name": "van-damme",
    "city": "Verviers",
    "country": "BE",
    "lat": 50.57323,
    "lng": 5.77119,
    "relay": "https://relay-be-verviers.macula.io:4433",
    "site": {
      "site_id": "09a91c0b755133fd",
      "name": "Van Damme",
      "city": "Verviers",
      "country": "BE",
      "lat": 50.57323,
      "lng": 5.77119,
      "site_type": "household"
    }
  },
  {
    "name": "jacobs",
    "city": "Brussels",
    "country": "BE",
    "lat": 50.81906,
    "lng": 4.33484,
    "relay": "https://relay-be-brussels.macula.io:4433",
    "site": {
      "site_id": "0019c777f12e626d",
      "name": "Jacobs",
      "city": "Brussels",
      "country": "BE",
      "lat": 50.81906,
      "lng": 4.33484,
      "site_type": "household"
    }
  },
  {
    "name": "dijkstra",
    "city": "Liege",
    "country": "BE",
    "lat": 50.59323,
    "lng": 5.59371,
    "relay": "https://relay-be-liege.macula.io:4433",
    "site": {
      "site_id": "fc30cf04e2fb5963",
      "name": "Dijkstra",
      "city": "Liege",
      "country": "BE",
      "lat": 50.59323,
      "lng": 5.59371,
      "site_type": "household"
    }
  },
  {
    "name": "kok",
    "city": "Charleroi",
    "country": "BE",
    "lat": 50.31929,
    "lng": 4.44607,
    "relay": "https://relay-be-charleroi.macula.io:4433",
    "site": {
      "site_id": "1829fc12fd3b757e",
      "name": "Kok",
      "city": "Charleroi",
      "country": "BE",
      "lat": 50.31929,
      "lng": 4.44607,
      "site_type": "household"
    }
  },
  {
    "name": "biotech-liege",
    "city": "Apeldoorn",
    "country": "NL",
    "lat": 52.19193,
    "lng": 5.86061,
    "relay": "https://relay-nl-apeldoorn.macula.io:4433",
    "site": {
      "site_id": "fe0a894dfeeeefdb",
      "name": "Biotech Liege",
      "city": "Apeldoorn",
      "country": "NL",
      "lat": 52.19193,
      "lng": 5.86061,
      "site_type": "business"
    }
  },
  {
    "name": "lammens",
    "city": "Venlo",
    "country": "NL",
    "lat": 51.42336,
    "lng": 6.16182,
    "relay": "https://relay-nl-venlo.macula.io:4433",
    "site": {
      "site_id": "35b6de3abbedb2ef",
      "name": "Lammens",
      "city": "Venlo",
      "country": "NL",
      "lat": 51.42336,
      "lng": 6.16182,
      "site_type": "household"
    }
  },
  {
    "name": "boekhandel-hermans",
    "city": "Namur",
    "country": "BE",
    "lat": 50.39015,
    "lng": 4.98092,
    "relay": "https://relay-be-namur.macula.io:4433",
    "site": {
      "site_id": "1b1c69a1207163e5",
      "name": "Boekhandel Hermans",
      "city": "Namur",
      "country": "BE",
      "lat": 50.39015,
      "lng": 4.98092,
      "site_type": "business"
    }
  },
  {
    "name": "becker-lu",
    "city": "Apeldoorn",
    "country": "NL",
    "lat": 52.21027,
    "lng": 5.90473,
    "relay": "https://relay-nl-apeldoorn.macula.io:4433",
    "site": {
      "site_id": "01dd5cf56fac1005",
      "name": "Becker Lu",
      "city": "Apeldoorn",
      "country": "NL",
      "lat": 52.21027,
      "lng": 5.90473,
      "site_type": "household"
    }
  },
  {
    "name": "kapsalon-elegance",
    "city": "Ghent",
    "country": "BE",
    "lat": 51.03853,
    "lng": 3.86819,
    "relay": "https://relay-be-ghent.macula.io:4433",
    "site": {
      "site_id": "c14f853135037b7b",
      "name": "Kapsalon Elegance",
      "city": "Ghent",
      "country": "BE",
      "lat": 51.03853,
      "lng": 3.86819,
      "site_type": "business"
    }
  },
  {
    "name": "heylen",
    "city": "Breda",
    "country": "NL",
    "lat": 51.52055,
    "lng": 4.89871,
    "relay": "https://relay-nl-breda.macula.io:4433",
    "site": {
      "site_id": "5f866ed6d7ea40f7",
      "name": "Heylen",
      "city": "Breda",
      "country": "NL",
      "lat": 51.52055,
      "lng": 4.89871,
      "site_type": "household"
    }
  },
  {
    "name": "windpark-groningen",
    "city": "Mouscron",
    "country": "BE",
    "lat": 50.76726,
    "lng": 3.13692,
    "relay": "https://relay-be-mouscron.macula.io:4433",
    "site": {
      "site_id": "74172e248a8c6931",
      "name": "Windpark Groningen",
      "city": "Mouscron",
      "country": "BE",
      "lat": 50.76726,
      "lng": 3.13692,
      "site_type": "business"
    }
  },
  {
    "name": "adam",
    "city": "Halle",
    "country": "BE",
    "lat": 50.77661,
    "lng": 4.12358,
    "relay": "https://relay-be-halle.macula.io:4433",
    "site": {
      "site_id": "55737bb55b4b4f13",
      "name": "Adam",
      "city": "Halle",
      "country": "BE",
      "lat": 50.77661,
      "lng": 4.12358,
      "site_type": "household"
    }
  },
  {
    "name": "schneider",
    "city": "Heerlen",
    "country": "NL",
    "lat": 50.93606,
    "lng": 5.89352,
    "relay": "https://relay-nl-heerlen.macula.io:4433",
    "site": {
      "site_id": "6109fef5207c0d00",
      "name": "Schneider",
      "city": "Heerlen",
      "country": "NL",
      "lat": 50.93606,
      "lng": 5.89352,
      "site_type": "household"
    }
  },
  {
    "name": "vinothek-somelier",
    "city": "Venlo",
    "country": "NL",
    "lat": 51.3252,
    "lng": 6.27875,
    "relay": "https://relay-nl-venlo.macula.io:4433",
    "site": {
      "site_id": "5ba5a4d58de0845e",
      "name": "Vinothek Somelier",
      "city": "Venlo",
      "country": "NL",
      "lat": 51.3252,
      "lng": 6.27875,
      "site_type": "business"
    }
  },
  {
    "name": "van-dijk",
    "city": "Utrecht",
    "country": "NL",
    "lat": 52.03177,
    "lng": 5.14904,
    "relay": "https://relay-nl-utrecht.macula.io:4433",
    "site": {
      "site_id": "3a03ed1daca16472",
      "name": "Van Dijk",
      "city": "Utrecht",
      "country": "NL",
      "lat": 52.03177,
      "lng": 5.14904,
      "site_type": "household"
    }
  },
  {
    "name": "slagerij-peeters",
    "city": "Kortrijk",
    "country": "BE",
    "lat": 50.88035,
    "lng": 3.25482,
    "relay": "https://relay-be-kortrijk.macula.io:4433",
    "site": {
      "site_id": "1fff3af7fc95db4f",
      "name": "Slagerij Peeters",
      "city": "Kortrijk",
      "country": "BE",
      "lat": 50.88035,
      "lng": 3.25482,
      "site_type": "business"
    }
  },
  {
    "name": "edgecompute-be",
    "city": "Utrecht",
    "country": "NL",
    "lat": 52.10052,
    "lng": 5.27553,
    "relay": "https://relay-nl-utrecht.macula.io:4433",
    "site": {
      "site_id": "99e90de689296648",
      "name": "Edgecompute Be",
      "city": "Utrecht",
      "country": "NL",
      "lat": 52.10052,
      "lng": 5.27553,
      "site_type": "business"
    }
  },
  {
    "name": "fintech-zuidas",
    "city": "Antwerp",
    "country": "BE",
    "lat": 51.18852,
    "lng": 4.51048,
    "relay": "https://relay-be-antwerp.macula.io:4433",
    "site": {
      "site_id": "4702ac8c6d63ef26",
      "name": "Fintech Zuidas",
      "city": "Antwerp",
      "country": "BE",
      "lat": 51.18852,
      "lng": 4.51048,
      "site_type": "business"
    }
  },
  {
    "name": "hendriks",
    "city": "Utrecht",
    "country": "NL",
    "lat": 52.02424,
    "lng": 5.21546,
    "relay": "https://relay-nl-utrecht.macula.io:4433",
    "site": {
      "site_id": "af6436470077c6df",
      "name": "Hendriks",
      "city": "Utrecht",
      "country": "NL",
      "lat": 52.02424,
      "lng": 5.21546,
      "site_type": "household"
    }
  },
  {
    "name": "georges",
    "city": "Charleroi",
    "country": "BE",
    "lat": 50.39001,
    "lng": 4.44556,
    "relay": "https://relay-be-charleroi.macula.io:4433",
    "site": {
      "site_id": "f44fc035444fca7e",
      "name": "Georges",
      "city": "Charleroi",
      "country": "BE",
      "lat": 50.39001,
      "lng": 4.44556,
      "site_type": "household"
    }
  },
  {
    "name": "janssens",
    "city": "Middelburg",
    "country": "NL",
    "lat": 51.55962,
    "lng": 3.59199,
    "relay": "https://relay-nl-middelburg.macula.io:4433",
    "site": {
      "site_id": "11e02c7c3f7a8056",
      "name": "Janssens",
      "city": "Middelburg",
      "country": "NL",
      "lat": 51.55962,
      "lng": 3.59199,
      "site_type": "household"
    }
  },
  {
    "name": "garage-vdb",
    "city": "Bruges",
    "country": "BE",
    "lat": 51.25977,
    "lng": 3.14332,
    "relay": "https://relay-be-bruges.macula.io:4433",
    "site": {
      "site_id": "dfd471f5e4ba410d",
      "name": "Garage Vdb",
      "city": "Bruges",
      "country": "BE",
      "lat": 51.25977,
      "lng": 3.14332,
      "site_type": "business"
    }
  },
  {
    "name": "lejeune",
    "city": "Esch-sur-Alzette",
    "country": "LU",
    "lat": 49.50713,
    "lng": 5.9696,
    "relay": "https://relay-lu-esch-sur-alzette.macula.io:4433",
    "site": {
      "site_id": "8f5c1b51965ab1bf",
      "name": "Lejeune",
      "city": "Esch-sur-Alzette",
      "country": "LU",
      "lat": 49.50713,
      "lng": 5.9696,
      "site_type": "household"
    }
  },
  {
    "name": "marchal",
    "city": "Namur",
    "country": "BE",
    "lat": 50.39354,
    "lng": 4.94566,
    "relay": "https://relay-be-namur.macula.io:4433",
    "site": {
      "site_id": "3a531db8ba107d0a",
      "name": "Marchal",
      "city": "Namur",
      "country": "BE",
      "lat": 50.39354,
      "lng": 4.94566,
      "site_type": "household"
    }
  },
  {
    "name": "cafe-de-markt",
    "city": "Charleroi",
    "country": "BE",
    "lat": 50.496,
    "lng": 4.51254,
    "relay": "https://relay-be-charleroi.macula.io:4433",
    "site": {
      "site_id": "db041210fafc3605",
      "name": "Cafe De Markt",
      "city": "Charleroi",
      "country": "BE",
      "lat": 50.496,
      "lng": 4.51254,
      "site_type": "business"
    }
  },
  {
    "name": "iot-solutions-gent",
    "city": "Mouscron",
    "country": "BE",
    "lat": 50.69508,
    "lng": 3.33974,
    "relay": "https://relay-be-mouscron.macula.io:4433",
    "site": {
      "site_id": "737506f5e8503115",
      "name": "Iot Solutions Gent",
      "city": "Mouscron",
      "country": "BE",
      "lat": 50.69508,
      "lng": 3.33974,
      "site_type": "business"
    }
  },
  {
    "name": "meshworks-bvba",
    "city": "Ghent",
    "country": "BE",
    "lat": 51.11386,
    "lng": 3.58999,
    "relay": "https://relay-be-ghent.macula.io:4433",
    "site": {
      "site_id": "dfad5766bb460694",
      "name": "Meshworks Bvba",
      "city": "Ghent",
      "country": "BE",
      "lat": 51.11386,
      "lng": 3.58999,
      "site_type": "business"
    }
  },
  {
    "name": "cabinet-lejeune",
    "city": "Utrecht",
    "country": "NL",
    "lat": 52.17276,
    "lng": 5.08181,
    "relay": "https://relay-nl-utrecht.macula.io:4433",
    "site": {
      "site_id": "d908e28ba60ae6ee",
      "name": "Cabinet Lejeune",
      "city": "Utrecht",
      "country": "NL",
      "lat": 52.17276,
      "lng": 5.08181,
      "site_type": "business"
    }
  },
  {
    "name": "taverne-de-leeuw",
    "city": "Heerlen",
    "country": "NL",
    "lat": 50.90244,
    "lng": 5.95597,
    "relay": "https://relay-nl-heerlen.macula.io:4433",
    "site": {
      "site_id": "44d5ce78951dd5d2",
      "name": "Taverne De Leeuw",
      "city": "Heerlen",
      "country": "NL",
      "lat": 50.90244,
      "lng": 5.95597,
      "site_type": "business"
    }
  },
  {
    "name": "vos",
    "city": "Ghent",
    "country": "BE",
    "lat": 51.06285,
    "lng": 3.85903,
    "relay": "https://relay-be-ghent.macula.io:4433",
    "site": {
      "site_id": "e71540e353197b10",
      "name": "Vos",
      "city": "Ghent",
      "country": "BE",
      "lat": 51.06285,
      "lng": 3.85903,
      "site_type": "household"
    }
  },
  {
    "name": "van-den-berg",
    "city": "Ypres",
    "country": "BE",
    "lat": 50.94531,
    "lng": 2.88341,
    "relay": "https://relay-be-ypres.macula.io:4433",
    "site": {
      "site_id": "a734f2132b1a4a6f",
      "name": "Van Den Berg",
      "city": "Ypres",
      "country": "BE",
      "lat": 50.94531,
      "lng": 2.88341,
      "site_type": "household"
    }
  },
  {
    "name": "martens",
    "city": "Arnhem",
    "country": "NL",
    "lat": 52.0785,
    "lng": 5.87793,
    "relay": "https://relay-nl-arnhem.macula.io:4433",
    "site": {
      "site_id": "55da8587ece36c7b",
      "name": "Martens",
      "city": "Arnhem",
      "country": "NL",
      "lat": 52.0785,
      "lng": 5.87793,
      "site_type": "household"
    }
  },
  {
    "name": "brouwer",
    "city": "Bruges",
    "country": "BE",
    "lat": 51.12482,
    "lng": 3.27452,
    "relay": "https://relay-be-bruges.macula.io:4433",
    "site": {
      "site_id": "911a0e815fa0e270",
      "name": "Brouwer",
      "city": "Bruges",
      "country": "BE",
      "lat": 51.12482,
      "lng": 3.27452,
      "site_type": "household"
    }
  },
  {
    "name": "hermans",
    "city": "Brussels",
    "country": "BE",
    "lat": 50.94276,
    "lng": 4.39524,
    "relay": "https://relay-be-brussels.macula.io:4433",
    "site": {
      "site_id": "4d35834a82a8c8ab",
      "name": "Hermans",
      "city": "Brussels",
      "country": "BE",
      "lat": 50.94276,
      "lng": 4.39524,
      "site_type": "household"
    }
  },
  {
    "name": "klein",
    "city": "Mol",
    "country": "BE",
    "lat": 51.14501,
    "lng": 5.20262,
    "relay": "https://relay-be-mol.macula.io:4433",
    "site": {
      "site_id": "c3e9c42204750016",
      "name": "Klein",
      "city": "Mol",
      "country": "BE",
      "lat": 51.14501,
      "lng": 5.20262,
      "site_type": "household"
    }
  },
  {
    "name": "weber",
    "city": "Genk",
    "country": "BE",
    "lat": 50.88523,
    "lng": 5.47737,
    "relay": "https://relay-be-genk.macula.io:4433",
    "site": {
      "site_id": "d96fc45f980412de",
      "name": "Weber",
      "city": "Genk",
      "country": "BE",
      "lat": 50.88523,
      "lng": 5.47737,
      "site_type": "household"
    }
  },
  {
    "name": "simon",
    "city": "Hasselt",
    "country": "BE",
    "lat": 50.94534,
    "lng": 5.37974,
    "relay": "https://relay-be-hasselt.macula.io:4433",
    "site": {
      "site_id": "e62fab496dff260f",
      "name": "Simon",
      "city": "Hasselt",
      "country": "BE",
      "lat": 50.94534,
      "lng": 5.37974,
      "site_type": "household"
    }
  },
  {
    "name": "greenpower-namur",
    "city": "Utrecht",
    "country": "NL",
    "lat": 52.05196,
    "lng": 5.06241,
    "relay": "https://relay-nl-utrecht.macula.io:4433",
    "site": {
      "site_id": "db7ede0b14038768",
      "name": "Greenpower Namur",
      "city": "Utrecht",
      "country": "NL",
      "lat": 52.05196,
      "lng": 5.06241,
      "site_type": "business"
    }
  },
  {
    "name": "drukkerij-claes",
    "city": "Namur",
    "country": "BE",
    "lat": 50.47704,
    "lng": 5.0068,
    "relay": "https://relay-be-namur.macula.io:4433",
    "site": {
      "site_id": "65ba9d377bc66f8b",
      "name": "Drukkerij Claes",
      "city": "Namur",
      "country": "BE",
      "lat": 50.47704,
      "lng": 5.0068,
      "site_type": "business"
    }
  },
  {
    "name": "schmit",
    "city": "Leiden",
    "country": "NL",
    "lat": 52.15975,
    "lng": 4.51407,
    "relay": "https://relay-nl-leiden.macula.io:4433",
    "site": {
      "site_id": "cef5589c2c88cdc8",
      "name": "Schmit",
      "city": "Leiden",
      "country": "NL",
      "lat": 52.15975,
      "lng": 4.51407,
      "site_type": "household"
    }
  },
  {
    "name": "vaes",
    "city": "Dordrecht",
    "country": "NL",
    "lat": 51.88569,
    "lng": 4.60638,
    "relay": "https://relay-nl-dordrecht.macula.io:4433",
    "site": {
      "site_id": "ada98476d3d4f534",
      "name": "Vaes",
      "city": "Dordrecht",
      "country": "NL",
      "lat": 51.88569,
      "lng": 4.60638,
      "site_type": "household"
    }
  },
  {
    "name": "van-der-wal",
    "city": "Charleroi",
    "country": "BE",
    "lat": 50.50479,
    "lng": 4.51842,
    "relay": "https://relay-be-charleroi.macula.io:4433",
    "site": {
      "site_id": "31551e83050a021f",
      "name": "Van Der Wal",
      "city": "Charleroi",
      "country": "BE",
      "lat": 50.50479,
      "lng": 4.51842,
      "site_type": "household"
    }
  },
  {
    "name": "epicerie-fine",
    "city": "Vilvoorde",
    "country": "BE",
    "lat": 50.88255,
    "lng": 4.33919,
    "relay": "https://relay-be-vilvoorde.macula.io:4433",
    "site": {
      "site_id": "b3d5a150b504a1d6",
      "name": "Epicerie Fine",
      "city": "Vilvoorde",
      "country": "BE",
      "lat": 50.88255,
      "lng": 4.33919,
      "site_type": "business"
    }
  },
  {
    "name": "bakkerij-artisan",
    "city": "Turnhout",
    "country": "BE",
    "lat": 51.26525,
    "lng": 4.97387,
    "relay": "https://relay-be-turnhout.macula.io:4433",
    "site": {
      "site_id": "53054c4ff988b51e",
      "name": "Bakkerij Artisan",
      "city": "Turnhout",
      "country": "BE",
      "lat": 51.26525,
      "lng": 4.97387,
      "site_type": "business"
    }
  },
  {
    "name": "de-groot",
    "city": "Utrecht",
    "country": "NL",
    "lat": 52.11205,
    "lng": 5.07563,
    "relay": "https://relay-nl-utrecht.macula.io:4433",
    "site": {
      "site_id": "ce80ab4a720b2c66",
      "name": "De Groot",
      "city": "Utrecht",
      "country": "NL",
      "lat": 52.11205,
      "lng": 5.07563,
      "site_type": "household"
    }
  },
  {
    "name": "verhoeven",
    "city": "Utrecht",
    "country": "NL",
    "lat": 52.01696,
    "lng": 5.06315,
    "relay": "https://relay-nl-utrecht.macula.io:4433",
    "site": {
      "site_id": "c78c49ab1a2b8729",
      "name": "Verhoeven",
      "city": "Utrecht",
      "country": "NL",
      "lat": 52.01696,
      "lng": 5.06315,
      "site_type": "household"
    }
  },
  {
    "name": "collignon",
    "city": "Halle",
    "country": "BE",
    "lat": 50.83116,
    "lng": 4.25588,
    "relay": "https://relay-be-halle.macula.io:4433",
    "site": {
      "site_id": "88d8f7e1930fcd1c",
      "name": "Collignon",
      "city": "Halle",
      "country": "BE",
      "lat": 50.83116,
      "lng": 4.25588,
      "site_type": "household"
    }
  },
  {
    "name": "smart-grid-antwerp",
    "city": "Eindhoven",
    "country": "NL",
    "lat": 51.42914,
    "lng": 5.59864,
    "relay": "https://relay-nl-eindhoven.macula.io:4433",
    "site": {
      "site_id": "570ad57c6ab55258",
      "name": "Smart Grid Antwerp",
      "city": "Eindhoven",
      "country": "NL",
      "lat": 51.42914,
      "lng": 5.59864,
      "site_type": "business"
    }
  },
  {
    "name": "van-leeuwen",
    "city": "Antwerp",
    "country": "BE",
    "lat": 51.29839,
    "lng": 4.32315,
    "relay": "https://relay-be-antwerp.macula.io:4433",
    "site": {
      "site_id": "39c2d1037b9233b1",
      "name": "Van Leeuwen",
      "city": "Antwerp",
      "country": "BE",
      "lat": 51.29839,
      "lng": 4.32315,
      "site_type": "household"
    }
  },
  {
    "name": "huisman",
    "city": "Ypres",
    "country": "BE",
    "lat": 50.86025,
    "lng": 2.80473,
    "relay": "https://relay-be-ypres.macula.io:4433",
    "site": {
      "site_id": "e1ccb41d39c5e71f",
      "name": "Huisman",
      "city": "Ypres",
      "country": "BE",
      "lat": 50.86025,
      "lng": 2.80473,
      "site_type": "household"
    }
  },
  {
    "name": "fietsen-willems",
    "city": "Rotterdam",
    "country": "NL",
    "lat": 51.93352,
    "lng": 4.55269,
    "relay": "https://relay-nl-rotterdam.macula.io:4433",
    "site": {
      "site_id": "598788f03f4c602d",
      "name": "Fietsen Willems",
      "city": "Rotterdam",
      "country": "NL",
      "lat": 51.93352,
      "lng": 4.55269,
      "site_type": "business"
    }
  },
  {
    "name": "nijs",
    "city": "Turnhout",
    "country": "BE",
    "lat": 51.28225,
    "lng": 4.81639,
    "relay": "https://relay-be-turnhout.macula.io:4433",
    "site": {
      "site_id": "363a0c1d79db10de",
      "name": "Nijs",
      "city": "Turnhout",
      "country": "BE",
      "lat": 51.28225,
      "lng": 4.81639,
      "site_type": "household"
    }
  },
  {
    "name": "leclercq",
    "city": "Leuven",
    "country": "BE",
    "lat": 50.80864,
    "lng": 4.58302,
    "relay": "https://relay-be-leuven.macula.io:4433",
    "site": {
      "site_id": "b7790a6a45ea63f6",
      "name": "Leclercq",
      "city": "Leuven",
      "country": "BE",
      "lat": 50.80864,
      "lng": 4.58302,
      "site_type": "household"
    }
  },
  {
    "name": "studio-creatief",
    "city": "Antwerp",
    "country": "BE",
    "lat": 51.19342,
    "lng": 4.50933,
    "relay": "https://relay-be-antwerp.macula.io:4433",
    "site": {
      "site_id": "b8b241376839b173",
      "name": "Studio Creatief",
      "city": "Antwerp",
      "country": "BE",
      "lat": 51.19342,
      "lng": 4.50933,
      "site_type": "business"
    }
  },
  {
    "name": "quantum-bru",
    "city": "The Hague",
    "country": "NL",
    "lat": 52.06691,
    "lng": 4.24822,
    "relay": "https://relay-nl-the-hague.macula.io:4433",
    "site": {
      "site_id": "7f91bd5a967575cf",
      "name": "Quantum Bru",
      "city": "The Hague",
      "country": "NL",
      "lat": 52.06691,
      "lng": 4.24822,
      "site_type": "business"
    }
  },
  {
    "name": "verbeke",
    "city": "Halle",
    "country": "BE",
    "lat": 50.70129,
    "lng": 4.33206,
    "relay": "https://relay-be-halle.macula.io:4433",
    "site": {
      "site_id": "aca6b0041b267b57",
      "name": "Verbeke",
      "city": "Halle",
      "country": "BE",
      "lat": 50.70129,
      "lng": 4.33206,
      "site_type": "household"
    }
  },
  {
    "name": "de-vries",
    "city": "Mons",
    "country": "BE",
    "lat": 50.50776,
    "lng": 4.04866,
    "relay": "https://relay-be-mons.macula.io:4433",
    "site": {
      "site_id": "206f2b508dfe7bc3",
      "name": "De Vries",
      "city": "Mons",
      "country": "BE",
      "lat": 50.50776,
      "lng": 4.04866,
      "site_type": "household"
    }
  },
  {
    "name": "webdesign-pixel",
    "city": "The Hague",
    "country": "NL",
    "lat": 51.96911,
    "lng": 4.26832,
    "relay": "https://relay-nl-the-hague.macula.io:4433",
    "site": {
      "site_id": "f06bbb4752a323af",
      "name": "Webdesign Pixel",
      "city": "The Hague",
      "country": "NL",
      "lat": 51.96911,
      "lng": 4.26832,
      "site_type": "business"
    }
  },
  {
    "name": "pharmacie-lambert",
    "city": "Mechelen",
    "country": "BE",
    "lat": 51.0216,
    "lng": 4.63354,
    "relay": "https://relay-be-mechelen.macula.io:4433",
    "site": {
      "site_id": "f046a6421cf73098",
      "name": "Pharmacie Lambert",
      "city": "Mechelen",
      "country": "BE",
      "lat": 51.0216,
      "lng": 4.63354,
      "site_type": "business"
    }
  },
  {
    "name": "leonard",
    "city": "Maastricht",
    "country": "NL",
    "lat": 50.9089,
    "lng": 5.67207,
    "relay": "https://relay-nl-maastricht.macula.io:4433",
    "site": {
      "site_id": "3cdef43adc219a17",
      "name": "Leonard",
      "city": "Maastricht",
      "country": "NL",
      "lat": 50.9089,
      "lng": 5.67207,
      "site_type": "household"
    }
  },
  {
    "name": "hendrickx",
    "city": "Rotterdam",
    "country": "NL",
    "lat": 51.94913,
    "lng": 4.36463,
    "relay": "https://relay-nl-rotterdam.macula.io:4433",
    "site": {
      "site_id": "2b025df8df10f4bc",
      "name": "Hendrickx",
      "city": "Rotterdam",
      "country": "NL",
      "lat": 51.94913,
      "lng": 4.36463,
      "site_type": "household"
    }
  },
  {
    "name": "designstudio-delft",
    "city": "Ghent",
    "country": "BE",
    "lat": 51.12166,
    "lng": 3.84819,
    "relay": "https://relay-be-ghent.macula.io:4433",
    "site": {
      "site_id": "9e095bbab85524b4",
      "name": "Designstudio Delft",
      "city": "Ghent",
      "country": "BE",
      "lat": 51.12166,
      "lng": 3.84819,
      "site_type": "business"
    }
  },
  {
    "name": "de-wit",
    "city": "Eindhoven",
    "country": "NL",
    "lat": 51.53653,
    "lng": 5.43793,
    "relay": "https://relay-nl-eindhoven.macula.io:4433",
    "site": {
      "site_id": "eb82850c150e5940",
      "name": "De Wit",
      "city": "Eindhoven",
      "country": "NL",
      "lat": 51.53653,
      "lng": 5.43793,
      "site_type": "household"
    }
  },
  {
    "name": "claessens",
    "city": "The Hague",
    "country": "NL",
    "lat": 52.12777,
    "lng": 4.36007,
    "relay": "https://relay-nl-the-hague.macula.io:4433",
    "site": {
      "site_id": "006eb4e095a4a4e4",
      "name": "Claessens",
      "city": "The Hague",
      "country": "NL",
      "lat": 52.12777,
      "lng": 4.36007,
      "site_type": "household"
    }
  },
  {
    "name": "cybercafe-connect",
    "city": "Mouscron",
    "country": "BE",
    "lat": 50.67161,
    "lng": 3.19276,
    "relay": "https://relay-be-mouscron.macula.io:4433",
    "site": {
      "site_id": "ccddf346c5b855b0",
      "name": "Cybercafe Connect",
      "city": "Mouscron",
      "country": "BE",
      "lat": 50.67161,
      "lng": 3.19276,
      "site_type": "business"
    }
  },
  {
    "name": "willems",
    "city": "Wavre",
    "country": "BE",
    "lat": 50.63118,
    "lng": 4.53285,
    "relay": "https://relay-be-wavre.macula.io:4433",
    "site": {
      "site_id": "56a5729586d5cb9e",
      "name": "Willems",
      "city": "Wavre",
      "country": "BE",
      "lat": 50.63118,
      "lng": 4.53285,
      "site_type": "household"
    }
  },
  {
    "name": "pauwels",
    "city": "The Hague",
    "country": "NL",
    "lat": 52.11112,
    "lng": 4.35423,
    "relay": "https://relay-nl-the-hague.macula.io:4433",
    "site": {
      "site_id": "b20dbdf7069e66b4",
      "name": "Pauwels",
      "city": "The Hague",
      "country": "NL",
      "lat": 52.11112,
      "lng": 4.35423,
      "site_type": "household"
    }
  },
  {
    "name": "kaashandel-gouda",
    "city": "Brussels",
    "country": "BE",
    "lat": 50.77356,
    "lng": 4.23821,
    "relay": "https://relay-be-brussels.macula.io:4433",
    "site": {
      "site_id": "732dd42fe80e6397",
      "name": "Kaashandel Gouda",
      "city": "Brussels",
      "country": "BE",
      "lat": 50.77356,
      "lng": 4.23821,
      "site_type": "business"
    }
  },
  {
    "name": "devos",
    "city": "Amsterdam",
    "country": "NL",
    "lat": 52.41142,
    "lng": 4.86181,
    "relay": "https://relay-nl-amsterdam.macula.io:4433",
    "site": {
      "site_id": "19d5e6fe9a2eba7c",
      "name": "Devos",
      "city": "Amsterdam",
      "country": "NL",
      "lat": 52.41142,
      "lng": 4.86181,
      "site_type": "household"
    }
  },
  {
    "name": "muller-lu",
    "city": "Antwerp",
    "country": "BE",
    "lat": 51.17083,
    "lng": 4.31408,
    "relay": "https://relay-be-antwerp.macula.io:4433",
    "site": {
      "site_id": "14ebf6281b3aac75",
      "name": "Muller Lu",
      "city": "Antwerp",
      "country": "BE",
      "lat": 51.17083,
      "lng": 4.31408,
      "site_type": "household"
    }
  },
  {
    "name": "eurostat-services",
    "city": "Vilvoorde",
    "country": "BE",
    "lat": 50.90595,
    "lng": 4.37757,
    "relay": "https://relay-be-vilvoorde.macula.io:4433",
    "site": {
      "site_id": "41c0b44c56dbebf5",
      "name": "Eurostat Services",
      "city": "Vilvoorde",
      "country": "BE",
      "lat": 50.90595,
      "lng": 4.37757,
      "site_type": "business"
    }
  },
  {
    "name": "chocolaterie-artisan",
    "city": "Antwerp",
    "country": "BE",
    "lat": 51.27567,
    "lng": 4.37096,
    "relay": "https://relay-be-antwerp.macula.io:4433",
    "site": {
      "site_id": "bff8a787f95e4e08",
      "name": "Chocolaterie Artisan",
      "city": "Antwerp",
      "country": "BE",
      "lat": 51.27567,
      "lng": 4.37096,
      "site_type": "business"
    }
  },
  {
    "name": "garage-martin",
    "city": "Gouda",
    "country": "NL",
    "lat": 52.05055,
    "lng": 4.76723,
    "relay": "https://relay-nl-gouda.macula.io:4433",
    "site": {
      "site_id": "2edaf1eb605ddae3",
      "name": "Garage Martin",
      "city": "Gouda",
      "country": "NL",
      "lat": 52.05055,
      "lng": 4.76723,
      "site_type": "business"
    }
  },
  {
    "name": "hoekstra-2",
    "city": "Leuven",
    "country": "BE",
    "lat": 50.82942,
    "lng": 4.76771,
    "relay": "https://relay-be-leuven.macula.io:4433",
    "site": {
      "site_id": "69a80f257b3f89d3",
      "name": "Hoekstra 2",
      "city": "Leuven",
      "country": "BE",
      "lat": 50.82942,
      "lng": 4.76771,
      "site_type": "household"
    }
  },
  {
    "name": "wagner-2",
    "city": "Breda",
    "country": "NL",
    "lat": 51.49328,
    "lng": 4.69096,
    "relay": "https://relay-nl-breda.macula.io:4433",
    "site": {
      "site_id": "d6f1c243befb97ff",
      "name": "Wagner 2",
      "city": "Breda",
      "country": "NL",
      "lat": 51.49328,
      "lng": 4.69096,
      "site_type": "household"
    }
  },
  {
    "name": "apotheek-centraal-2",
    "city": "Breda",
    "country": "NL",
    "lat": 51.51638,
    "lng": 4.63699,
    "relay": "https://relay-nl-breda.macula.io:4433",
    "site": {
      "site_id": "c97a4382d0713714",
      "name": "Apotheek Centraal 2",
      "city": "Breda",
      "country": "NL",
      "lat": 51.51638,
      "lng": 4.63699,
      "site_type": "household"
    }
  },
  {
    "name": "advocaat-stevens-2",
    "city": "Groningen",
    "country": "NL",
    "lat": 53.27244,
    "lng": 6.53082,
    "relay": "https://relay-nl-groningen.macula.io:4433",
    "site": {
      "site_id": "2e1f820c3b8fed23",
      "name": "Advocaat Stevens 2",
      "city": "Groningen",
      "country": "NL",
      "lat": 53.27244,
      "lng": 6.53082,
      "site_type": "household"
    }
  },
  {
    "name": "schiltz-2",
    "city": "The Hague",
    "country": "NL",
    "lat": 52.08522,
    "lng": 4.41551,
    "relay": "https://relay-nl-the-hague.macula.io:4433",
    "site": {
      "site_id": "32f71d44937e74f2",
      "name": "Schiltz 2",
      "city": "The Hague",
      "country": "NL",
      "lat": 52.08522,
      "lng": 4.41551,
      "site_type": "household"
    }
  },
  {
    "name": "steel-esch-2",
    "city": "Roeselare",
    "country": "BE",
    "lat": 50.96786,
    "lng": 3.08176,
    "relay": "https://relay-be-roeselare.macula.io:4433",
    "site": {
      "site_id": "aa5fa11096a48ec4",
      "name": "Steel Esch 2",
      "city": "Roeselare",
      "country": "BE",
      "lat": 50.96786,
      "lng": 3.08176,
      "site_type": "household"
    }
  },
  {
    "name": "peters-2",
    "city": "The Hague",
    "country": "NL",
    "lat": 51.96774,
    "lng": 4.25274,
    "relay": "https://relay-nl-the-hague.macula.io:4433",
    "site": {
      "site_id": "92135e2b43753ca1",
      "name": "Peters 2",
      "city": "The Hague",
      "country": "NL",
      "lat": 51.96774,
      "lng": 4.25274,
      "site_type": "household"
    }
  },
  {
    "name": "lemaire-2",
    "city": "The Hague",
    "country": "NL",
    "lat": 52.12322,
    "lng": 4.335,
    "relay": "https://relay-nl-the-hague.macula.io:4433",
    "site": {
      "site_id": "310c351ba7471ab7",
      "name": "Lemaire 2",
      "city": "The Hague",
      "country": "NL",
      "lat": 52.12322,
      "lng": 4.335,
      "site_type": "household"
    }
  },
  {
    "name": "de-graef-2",
    "city": "Liege",
    "country": "BE",
    "lat": 50.72235,
    "lng": 5.53097,
    "relay": "https://relay-be-liege.macula.io:4433",
    "site": {
      "site_id": "12f0e3ecc1ec4f73",
      "name": "De Graef 2",
      "city": "Liege",
      "country": "BE",
      "lat": 50.72235,
      "lng": 5.53097,
      "site_type": "household"
    }
  },
  {
    "name": "tech-flanders-2",
    "city": "Ghent",
    "country": "BE",
    "lat": 51.00918,
    "lng": 3.59981,
    "relay": "https://relay-be-ghent.macula.io:4433",
    "site": {
      "site_id": "a32f7e5099c97551",
      "name": "Tech Flanders 2",
      "city": "Ghent",
      "country": "BE",
      "lat": 51.00918,
      "lng": 3.59981,
      "site_type": "household"
    }
  },
  {
    "name": "bodart-2",
    "city": "Brussels",
    "country": "BE",
    "lat": 50.90961,
    "lng": 4.3826,
    "relay": "https://relay-be-brussels.macula.io:4433",
    "site": {
      "site_id": "ac2d870a08f94ad5",
      "name": "Bodart 2",
      "city": "Brussels",
      "country": "BE",
      "lat": 50.90961,
      "lng": 4.3826,
      "site_type": "household"
    }
  },
  {
    "name": "de-smedt-2",
    "city": "Leuven",
    "country": "BE",
    "lat": 50.89108,
    "lng": 4.62497,
    "relay": "https://relay-be-leuven.macula.io:4433",
    "site": {
      "site_id": "e0286f3f6345902c",
      "name": "De Smedt 2",
      "city": "Leuven",
      "country": "BE",
      "lat": 50.89108,
      "lng": 4.62497,
      "site_type": "household"
    }
  },
  {
    "name": "servais-2",
    "city": "Aalst",
    "country": "BE",
    "lat": 50.85483,
    "lng": 3.9594,
    "relay": "https://relay-be-aalst.macula.io:4433",
    "site": {
      "site_id": "3fff6edebfa304cf",
      "name": "Servais 2",
      "city": "Aalst",
      "country": "BE",
      "lat": 50.85483,
      "lng": 3.9594,
      "site_type": "household"
    }
  }
]