[
  {
    "name": "the-hadzic-0",
    "city": "Sarajevo",
    "country": "BA",
    "lat": 43.3724,
    "lng": 18.6745,
    "relay": "https://box-hetzner-nuremberg.macula.io:4433",
    "site_type": "family"
  },
  {
    "name": "tampere-cyber-pro-1",
    "city": "Tampere",
    "country": "FI",
    "lat": 62.8824,
    "lng": 23.0785,
    "relay": "https://box-hetzner-helsinki.macula.io:4433",
    "site_type": "business"
  },
  {
    "name": "familie-hoffmann-2",
    "city": "Frankfurt",
    "country": "DE",
    "lat": 50.6255,
    "lng": 9.9827,
    "relay": "https://box-hetzner-nuremberg.macula.io:4433",
    "site_type": "family"
  },
  {
    "name": "the-wagner-3",
    "city": "Salzburg",
    "country": "AT",
    "lat": 47.7366,
    "lng": 13.94,
    "relay": "https://box-hetzner-nuremberg.macula.io:4433",
    "site_type": "family"
  },
  {
    "name": "zagreb-solar-hub-4",
    "city": "Zagreb",
    "country": "HR",
    "lat": 46.7298,
    "lng": 16.4423,
    "relay": "https://box-hetzner-nuremberg.macula.io:4433",
    "site_type": "business"
  },
  {
    "name": "the-vujovic-5",
    "city": "Podgorica",
    "country": "ME",
    "lat": 42.1995,
    "lng": 20.1018,
    "relay": "https://box-hetzner-nuremberg.macula.io:4433",
    "site_type": "family"
  },
  {
    "name": "nurember-bio-hub-6",
    "city": "Nuremberg",
    "country": "DE",
    "lat": 49.4772,
    "lng": 12.7511,
    "relay": "https://box-hetzner-nuremberg.macula.io:4433",
    "site_type": "business"
  },
  {
    "name": "the-molnar-7",
    "city": "Debrecen",
    "country": "HU",
    "lat": 47.5222,
    "lng": 21.5098,
    "relay": "https://box-hetzner-helsinki.macula.io:4433",
    "site_type": "family"
  },
  {
    "name": "the-lungu-8",
    "city": "Chisinau",
    "country": "MD",
    "lat": 47.493,
    "lng": 28.424,
    "relay": "https://box-hetzner-helsinki.macula.io:4433",
    "site_type": "family"
  },
  {
    "name": "bratisla-smart-pro-9",
    "city": "Bratislava",
    "country": "SK",
    "lat": 48.0455,
    "lng": 17.1685,
    "relay": "https://box-hetzner-helsinki.macula.io:4433",
    "site_type": "business"
  },
  {
    "name": "the-melnyk-10",
    "city": "Mariupol",
    "country": "UA",
    "lat": 44.8897,
    "lng": 39.1485,
    "relay": "https://box-hetzner-helsinki.macula.io:4433",
    "site_type": "family"
  },
  {
    "name": "tartu-transport-pro-11",
    "city": "Tartu",
    "country": "EE",
    "lat": 58.1516,
    "lng": 27.488,
    "relay": "https://box-hetzner-helsinki.macula.io:4433",
    "site_type": "business"
  },
  {
    "name": "the-ivanov-12",
    "city": "Sofia",
    "country": "BG",
    "lat": 44.6941,
    "lng": 22.9506,
    "relay": "https://box-hetzner-helsinki.macula.io:4433",
    "site_type": "family"
  },
  {
    "name": "the-lysenko-13",
    "city": "Poltava",
    "country": "UA",
    "lat": 49.6319,
    "lng": 33.8605,
    "relay": "https://box-hetzner-helsinki.macula.io:4433",
    "site_type": "family"
  },
  {
    "name": "charlero-media-hub-14",
    "city": "Charleroi",
    "country": "BE",
    "lat": 49.6882,
    "lng": 4.9287,
    "relay": "https://box-hetzner-nuremberg.macula.io:4433",
    "site_type": "business"
  },
  {
    "name": "the-paulauskas-15",
    "city": "Vilnius",
    "country": "LT",
    "lat": 54.7585,
    "lng": 24.8183,
    "relay": "https://box-hetzner-helsinki.macula.io:4433",
    "site_type": "family"
  },
  {
    "name": "dusseldo-radio-hub-16",
    "city": "Dusseldorf",
    "country": "DE",
    "lat": 51.1838,
    "lng": 6.6238,
    "relay": "https://box-hetzner-nuremberg.macula.io:4433",
    "site_type": "business"
  },
  {
    "name": "casa-ricci-17",
    "city": "Palermo",
    "country": "IT",
    "lat": 37.126,
    "lng": 13.6378,
    "relay": "https://box-hetzner-nuremberg.macula.io:4433",
    "site_type": "family"
  },
  {
    "name": "the-koppel-18",
    "city": "Tartu",
    "country": "EE",
    "lat": 57.4479,
    "lng": 25.8047,
    "relay": "https://box-hetzner-helsinki.macula.io:4433",
    "site_type": "family"
  },
  {
    "name": "buchares-consult-pro-19",
    "city": "Bucharest",
    "country": "RO",
    "lat": 44.1075,
    "lng": 25.8222,
    "relay": "https://box-hetzner-helsinki.macula.io:4433",
    "site_type": "business"
  },
  {
    "name": "the-nowak-20",
    "city": "Katowice",
    "country": "PL",
    "lat": 49.2722,
    "lng": 18.2157,
    "relay": "https://box-hetzner-helsinki.macula.io:4433",
    "site_type": "family"
  },
  {
    "name": "klaipeda-tax-pro-21",
    "city": "Klaipeda",
    "country": "LT",
    "lat": 57.4164,
    "lng": 21.2018,
    "relay": "https://box-hetzner-helsinki.macula.io:4433",
    "site_type": "business"
  },
  {
    "name": "the-stojanovski-22",
    "city": "Skopje",
    "country": "MK",
    "lat": 41.8028,
    "lng": 20.7091,
    "relay": "https://box-hetzner-nuremberg.macula.io:4433",
    "site_type": "family"
  },
  {
    "name": "familie-schmidt-23",
    "city": "Berlin",
    "country": "DE",
    "lat": 52.3307,
    "lng": 13.849,
    "relay": "https://box-hetzner-nuremberg.macula.io:4433",
    "site_type": "family"
  },
  {
    "name": "aarhus-build-hub-24",
    "city": "Aarhus",
    "country": "DK",
    "lat": 56.4371,
    "lng": 10.2834,
    "relay": "https://box-hetzner-helsinki.macula.io:4433",
    "site_type": "business"
  },
  {
    "name": "the-larsson-25",
    "city": "Uppsala",
    "country": "SE",
    "lat": 61.1615,
    "lng": 18.7916,
    "relay": "https://box-hetzner-helsinki.macula.io:4433",
    "site_type": "family"
  },
  {
    "name": "szczecin-food-hub-26",
    "city": "Szczecin",
    "country": "PL",
    "lat": 54.6081,
    "lng": 14.5151,
    "relay": "https://box-hetzner-helsinki.macula.io:4433",
    "site_type": "business"
  },
  {
    "name": "familie-wagner-27",
    "city": "Munich",
    "country": "DE",
    "lat": 48.8277,
    "lng": 12.216,
    "relay": "https://box-hetzner-nuremberg.macula.io:4433",
    "site_type": "family"
  },
  {
    "name": "the-kazlauskas-28",
    "city": "Kaunas",
    "country": "LT",
    "lat": 54.2082,
    "lng": 24.0408,
    "relay": "https://box-hetzner-helsinki.macula.io:4433",
    "site_type": "family"
  },
  {
    "name": "zagreb-market-pro-29",
    "city": "Zagreb",
    "country": "HR",
    "lat": 46.3368,
    "lng": 17.6478,
    "relay": "https://box-hetzner-nuremberg.macula.io:4433",
    "site_type": "business"
  },
  {
    "name": "the-kalns-30",
    "city": "Riga",
    "country": "LV",
    "lat": 56.1287,
    "lng": 23.175,
    "relay": "https://box-hetzner-helsinki.macula.io:4433",
    "site_type": "family"
  },
  {
    "name": "bari-cafe-pro-31",
    "city": "Bari",
    "country": "IT",
    "lat": 42.851,
    "lng": 16.5038,
    "relay": "https://box-hetzner-nuremberg.macula.io:4433",
    "site_type": "business"
  },
  {
    "name": "the-shehu-32",
    "city": "Tirana",
    "country": "AL",
    "lat": 42.2298,
    "lng": 20.2704,
    "relay": "https://box-hetzner-nuremberg.macula.io:4433",
    "site_type": "family"
  },
  {
    "name": "the-radulovic-33",
    "city": "Podgorica",
    "country": "ME",
    "lat": 42.3425,
    "lng": 19.5726,
    "relay": "https://box-hetzner-nuremberg.macula.io:4433",
    "site_type": "family"
  },
  {
    "name": "nice-school-hub-34",
    "city": "Nice",
    "country": "FR",
    "lat": 40.7781,
    "lng": 7.2169,
    "relay": "https://box-hetzner-nuremberg.macula.io:4433",
    "site_type": "business"
  },
  {
    "name": "the-jonaitis-35",
    "city": "Klaipeda",
    "country": "LT",
    "lat": 57.7541,
    "lng": 21.9385,
    "relay": "https://box-hetzner-helsinki.macula.io:4433",
    "site_type": "family"
  },
  {
    "name": "dusseldo-hotel-hub-36",
    "city": "Dusseldorf",
    "country": "DE",
    "lat": 50.8393,
    "lng": 6.2394,
    "relay": "https://box-hetzner-nuremberg.macula.io:4433",
    "site_type": "business"
  },
  {
    "name": "the-harris-37",
    "city": "Leeds",
    "country": "GB",
    "lat": 52.9395,
    "lng": -0.434,
    "relay": "https://box-hetzner-nuremberg.macula.io:4433",
    "site_type": "family"
  },
  {
    "name": "the-ciobanu-38",
    "city": "Iasi",
    "country": "RO",
    "lat": 48.0568,
    "lng": 28.0009,
    "relay": "https://box-hetzner-helsinki.macula.io:4433",
    "site_type": "family"
  },
  {
    "name": "lille-dentist-pro-39",
    "city": "Lille",
    "country": "FR",
    "lat": 50.4166,
    "lng": 2.7388,
    "relay": "https://box-hetzner-nuremberg.macula.io:4433",
    "site_type": "business"
  },
  {
    "name": "the-horvat-40",
    "city": "Zagreb",
    "country": "HR",
    "lat": 46.4617,
    "lng": 16.1291,
    "relay": "https://box-hetzner-nuremberg.macula.io:4433",
    "site_type": "family"
  },
  {
    "name": "chernivt-studio-pro-41",
    "city": "Chernivtsi",
    "country": "UA",
    "lat": 47.7735,
    "lng": 25.0344,
    "relay": "https://box-hetzner-helsinki.macula.io:4433",
    "site_type": "business"
  },
  {
    "name": "the-polishchuk-42",
    "city": "Chernivtsi",
    "country": "UA",
    "lat": 48.0703,
    "lng": 25.742,
    "relay": "https://box-hetzner-helsinki.macula.io:4433",
    "site_type": "family"
  },
  {
    "name": "casa-esposito-43",
    "city": "Bari",
    "country": "IT",
    "lat": 43.3224,
    "lng": 16.1483,
    "relay": "https://box-hetzner-nuremberg.macula.io:4433",
    "site_type": "family"
  },
  {
    "name": "podgoric-farm-hub-44",
    "city": "Podgorica",
    "country": "ME",
    "lat": 42.1628,
    "lng": 18.4122,
    "relay": "https://box-hetzner-nuremberg.macula.io:4433",
    "site_type": "business"
  },
  {
    "name": "the-wilson-45",
    "city": "Bristol",
    "country": "GB",
    "lat": 50.9958,
    "lng": -1.9755,
    "relay": "https://box-hetzner-nuremberg.macula.io:4433",
    "site_type": "family"
  },
  {
    "name": "tampere-winery-hub-46",
    "city": "Tampere",
    "country": "FI",
    "lat": 63.6804,
    "lng": 21.7605,
    "relay": "https://box-hetzner-helsinki.macula.io:4433",
    "site_type": "business"
  },
  {
    "name": "casa-perez-47",
    "city": "Seville",
    "country": "ES",
    "lat": 38.9339,
    "lng": -5.1624,
    "relay": "https://box-hetzner-nuremberg.macula.io:4433",
    "site_type": "family"
  },
  {
    "name": "the-babic-48",
    "city": "Zagreb",
    "country": "HR",
    "lat": 44.6605,
    "lng": 16.6915,
    "relay": "https://box-hetzner-nuremberg.macula.io:4433",
    "site_type": "family"
  },
  {
    "name": "aarhus-forge-pro-49",
    "city": "Aarhus",
    "country": "DK",
    "lat": 56.8162,
    "lng": 9.5178,
    "relay": "https://box-hetzner-helsinki.macula.io:4433",
    "site_type": "business"
  },
  {
    "name": "the-begovic-50",
    "city": "Sarajevo",
    "country": "BA",
    "lat": 42.845,
    "lng": 17.5676,
    "relay": "https://box-hetzner-nuremberg.macula.io:4433",
    "site_type": "family"
  },
  {
    "name": "debrecen-digital-pro-51",
    "city": "Debrecen",
    "country": "HU",
    "lat": 48.1279,
    "lng": 21.5015,
    "relay": "https://box-hetzner-helsinki.macula.io:4433",
    "site_type": "business"
  },
  {
    "name": "the-nowak-52",
    "city": "Szczecin",
    "country": "PL",
    "lat": 53.0794,
    "lng": 15.5364,
    "relay": "https://box-hetzner-helsinki.macula.io:4433",
    "site_type": "family"
  },
  {
    "name": "the-walsh-53",
    "city": "Cork",
    "country": "IE",
    "lat": 49.9879,
    "lng": -6.125,
    "relay": "https://box-hetzner-nuremberg.macula.io:4433",
    "site_type": "family"
  },
  {
    "name": "malmo-cyber-hub-54",
    "city": "Malmo",
    "country": "SE",
    "lat": 55.5154,
    "lng": 12.846,
    "relay": "https://box-hetzner-helsinki.macula.io:4433",
    "site_type": "business"
  },
  {
    "name": "the-wojcik-55",
    "city": "Szczecin",
    "country": "PL",
    "lat": 52.7814,
    "lng": 14.7714,
    "relay": "https://box-hetzner-helsinki.macula.io:4433",
    "site_type": "family"
  },
  {
    "name": "copenhag-app-hub-56",
    "city": "Copenhagen",
    "country": "DK",
    "lat": 54.2978,
    "lng": 12.5222,
    "relay": "https://box-hetzner-helsinki.macula.io:4433",
    "site_type": "business"
  },
  {
    "name": "the-krajnc-57",
    "city": "Ljubljana",
    "country": "SI",
    "lat": 46.1302,
    "lng": 15.1576,
    "relay": "https://box-hetzner-nuremberg.macula.io:4433",
    "site_type": "family"
  },
  {
    "name": "familie-mueller-58",
    "city": "Hamburg",
    "country": "DE",
    "lat": 52.7904,
    "lng": 10.1804,
    "relay": "https://box-hetzner-nuremberg.macula.io:4433",
    "site_type": "family"
  },
  {
    "name": "kosice-bio-pro-59",
    "city": "Kosice",
    "country": "SK",
    "lat": 47.8339,
    "lng": 20.3607,
    "relay": "https://box-hetzner-helsinki.macula.io:4433",
    "site_type": "business"
  },
  {
    "name": "the-jensen-60",
    "city": "Aarhus",
    "country": "DK",
    "lat": 56.5404,
    "lng": 8.2762,
    "relay": "https://box-hetzner-helsinki.macula.io:4433",
    "site_type": "family"
  },
  {
    "name": "hamburg-green-pro-61",
    "city": "Hamburg",
    "country": "DE",
    "lat": 53.3915,
    "lng": 11.3782,
    "relay": "https://box-hetzner-nuremberg.macula.io:4433",
    "site_type": "business"
  },
  {
    "name": "familie-weber-62",
    "city": "Stuttgart",
    "country": "DE",
    "lat": 47.6088,
    "lng": 10.0101,
    "relay": "https://box-hetzner-nuremberg.macula.io:4433",
    "site_type": "family"
  },
  {
    "name": "the-walsh-63",
    "city": "Dublin",
    "country": "IE",
    "lat": 51.5543,
    "lng": -6.2256,
    "relay": "https://box-hetzner-nuremberg.macula.io:4433",
    "site_type": "family"
  },
  {
    "name": "podgoric-transport-hub-64",
    "city": "Podgorica",
    "country": "ME",
    "lat": 42.4412,
    "lng": 19.5135,
    "relay": "https://box-hetzner-nuremberg.macula.io:4433",
    "site_type": "business"
  },
  {
    "name": "the-pedersen-65",
    "city": "Bergen",
    "country": "NO",
    "lat": 63.5329,
    "lng": 6.2073,
    "relay": "https://box-hetzner-helsinki.macula.io:4433",
    "site_type": "family"
  },
  {
    "name": "trondhei-freight-hub-66",
    "city": "Trondheim",
    "country": "NO",
    "lat": 63.8454,
    "lng": 11.595,
    "relay": "https://box-hetzner-helsinki.macula.io:4433",
    "site_type": "business"
  },
  {
    "name": "familie-mueller-67",
    "city": "Stuttgart",
    "country": "DE",
    "lat": 48.1928,
    "lng": 8.8244,
    "relay": "https://box-hetzner-nuremberg.macula.io:4433",
    "site_type": "family"
  },
  {
    "name": "the-butkus-68",
    "city": "Vilnius",
    "country": "LT",
    "lat": 54.8485,
    "lng": 25.5222,
    "relay": "https://box-hetzner-helsinki.macula.io:4433",
    "site_type": "family"
  },
  {
    "name": "dusseldo-radio-pro-69",
    "city": "Dusseldorf",
    "country": "DE",
    "lat": 51.6469,
    "lng": 6.5773,
    "relay": "https://box-hetzner-nuremberg.macula.io:4433",
    "site_type": "business"
  },
  {
    "name": "famille-martin-70",
    "city": "Toulouse",
    "country": "FR",
    "lat": 44.3823,
    "lng": 1.0581,
    "relay": "https://box-hetzner-nuremberg.macula.io:4433",
    "site_type": "family"
  },
  {
    "name": "riga-legal-pro-71",
    "city": "Riga",
    "country": "LV",
    "lat": 56.4233,
    "lng": 24.0721,
    "relay": "https://box-hetzner-helsinki.macula.io:4433",
    "site_type": "business"
  },
  {
    "name": "the-shevchenko-72",
    "city": "Kherson",
    "country": "UA",
    "lat": 46.7492,
    "lng": 33.6378,
    "relay": "https://box-hetzner-helsinki.macula.io:4433",
    "site_type": "family"
  },
  {
    "name": "casa-martins-73",
    "city": "Lisbon",
    "country": "PT",
    "lat": 38.3629,
    "lng": -7.6513,
    "relay": "https://box-hetzner-nuremberg.macula.io:4433",
    "site_type": "family"
  },
  {
    "name": "aarhus-tax-hub-74",
    "city": "Aarhus",
    "country": "DK",
    "lat": 55.2833,
    "lng": 9.3678,
    "relay": "https://box-hetzner-helsinki.macula.io:4433",
    "site_type": "business"
  },
  {
    "name": "the-tkachenko-75",
    "city": "Dnipro",
    "country": "UA",
    "lat": 48.4604,
    "lng": 34.982,
    "relay": "https://box-hetzner-helsinki.macula.io:4433",
    "site_type": "family"
  },
  {
    "name": "tampere-arch-hub-76",
    "city": "Tampere",
    "country": "FI",
    "lat": 62.4877,
    "lng": 26.0979,
    "relay": "https://box-hetzner-helsinki.macula.io:4433",
    "site_type": "business"
  },
  {
    "name": "the-vujovic-77",
    "city": "Podgorica",
    "country": "ME",
    "lat": 42.9449,
    "lng": 19.8697,
    "relay": "https://box-hetzner-nuremberg.macula.io:4433",
    "site_type": "family"
  },
  {
    "name": "familie-schneider-78",
    "city": "Hamburg",
    "country": "DE",
    "lat": 53.7328,
    "lng": 10.154,
    "relay": "https://box-hetzner-nuremberg.macula.io:4433",
    "site_type": "family"
  },
  {
    "name": "stuttgar-food-pro-79",
    "city": "Stuttgart",
    "country": "DE",
    "lat": 48.1066,
    "lng": 9.8643,
    "relay": "https://box-hetzner-nuremberg.macula.io:4433",
    "site_type": "business"
  },
  {
    "name": "the-dumitru-80",
    "city": "Cluj-Napoca",
    "country": "RO",
    "lat": 47.1597,
    "lng": 22.6954,
    "relay": "https://box-hetzner-helsinki.macula.io:4433",
    "site_type": "family"
  },
  {
    "name": "copenhag-organic-pro-81",
    "city": "Copenhagen",
    "country": "DK",
    "lat": 56.4265,
    "lng": 11.7774,
    "relay": "https://box-hetzner-helsinki.macula.io:4433",
    "site_type": "business"
  },
  {
    "name": "de-goossens-82",
    "city": "Charleroi",
    "country": "BE",
    "lat": 50.2521,
    "lng": 4.2132,
    "relay": "https://box-hetzner-nuremberg.macula.io:4433",
    "site_type": "family"
  },
  {
    "name": "the-persson-83",
    "city": "Uppsala",
    "country": "SE",
    "lat": 65.4167,
    "lng": 18.9361,
    "relay": "https://box-hetzner-helsinki.macula.io:4433",
    "site_type": "family"
  },
  {
    "name": "salzburg-cafe-hub-84",
    "city": "Salzburg",
    "country": "AT",
    "lat": 47.0716,
    "lng": 12.176,
    "relay": "https://box-hetzner-nuremberg.macula.io:4433",
    "site_type": "business"
  },
  {
    "name": "the-kowalski-85",
    "city": "Poznan",
    "country": "PL",
    "lat": 53.7462,
    "lng": 17.0012,
    "relay": "https://box-hetzner-helsinki.macula.io:4433",
    "site_type": "family"
  },
  {
    "name": "nantes-clinic-hub-86",
    "city": "Nantes",
    "country": "FR",
    "lat": 46.2426,
    "lng": -3.9342,
    "relay": "https://box-hetzner-nuremberg.macula.io:4433",
    "site_type": "business"
  },
  {
    "name": "the-larsen-87",
    "city": "Oslo",
    "country": "NO",
    "lat": 61.1826,
    "lng": 13.0302,
    "relay": "https://box-hetzner-helsinki.macula.io:4433",
    "site_type": "family"
  },
  {
    "name": "casa-costa-88",
    "city": "Lisbon",
    "country": "PT",
    "lat": 38.7979,
    "lng": -8.263,
    "relay": "https://box-hetzner-nuremberg.macula.io:4433",
    "site_type": "family"
  },
  {
    "name": "klaipeda-hotel-pro-89",
    "city": "Klaipeda",
    "country": "LT",
    "lat": 56.2964,
    "lng": 21.4226,
    "relay": "https://box-hetzner-helsinki.macula.io:4433",
    "site_type": "business"
  },
  {
    "name": "the-novak-90",
    "city": "Ljubljana",
    "country": "SI",
    "lat": 46.6526,
    "lng": 13.9926,
    "relay": "https://box-hetzner-nuremberg.macula.io:4433",
    "site_type": "family"
  },
  {
    "name": "luxembou-florist-pro-91",
    "city": "Luxembourg",
    "country": "LU",
    "lat": 49.564,
    "lng": 6.384,
    "relay": "https://box-hetzner-nuremberg.macula.io:4433",
    "site_type": "business"
  },
  {
    "name": "the-shehu-92",
    "city": "Tirana",
    "country": "AL",
    "lat": 41.5973,
    "lng": 20.5287,
    "relay": "https://box-hetzner-nuremberg.macula.io:4433",
    "site_type": "family"
  },
  {
    "name": "the-steiner-93",
    "city": "Geneva",
    "country": "CH",
    "lat": 46.2381,
    "lng": 6.3803,
    "relay": "https://box-hetzner-nuremberg.macula.io:4433",
    "site_type": "family"
  },
  {
    "name": "oulu-studio-hub-94",
    "city": "Oulu",
    "country": "FI",
    "lat": 66.1243,
    "lng": 23.2905,
    "relay": "https://box-hetzner-helsinki.macula.io:4433",
    "site_type": "business"
  },
  {
    "name": "the-vujovic-95",
    "city": "Podgorica",
    "country": "ME",
    "lat": 41.9669,
    "lng": 18.6219,
    "relay": "https://box-hetzner-nuremberg.macula.io:4433",
    "site_type": "family"
  },
  {
    "name": "munich-lab-hub-96",
    "city": "Munich",
    "country": "DE",
    "lat": 47.2113,
    "lng": 11.1578,
    "relay": "https://box-hetzner-nuremberg.macula.io:4433",
    "site_type": "business"
  },
  {
    "name": "the-stan-97",
    "city": "Iasi",
    "country": "RO",
    "lat": 46.7409,
    "lng": 27.8963,
    "relay": "https://box-hetzner-helsinki.macula.io:4433",
    "site_type": "family"
  },
  {
    "name": "the-clark-98",
    "city": "Cardiff",
    "country": "GB",
    "lat": 52.18,
    "lng": -4.2216,
    "relay": "https://box-hetzner-nuremberg.macula.io:4433",
    "site_type": "family"
  },
  {
    "name": "bilbao-winery-pro-99",
    "city": "Bilbao",
    "country": "ES",
    "lat": 42.1719,
    "lng": -1.4228,
    "relay": "https://box-hetzner-nuremberg.macula.io:4433",
    "site_type": "business"
  },
  {
    "name": "casa-rossi-100",
    "city": "Rome",
    "country": "IT",
    "lat": 41.7583,
    "lng": 13.4225,
    "relay": "https://box-hetzner-nuremberg.macula.io:4433",
    "site_type": "family"
  },
  {
    "name": "skopje-workshop-pro-101",
    "city": "Skopje",
    "country": "MK",
    "lat": 41.8955,
    "lng": 21.6488,
    "relay": "https://box-hetzner-nuremberg.macula.io:4433",
    "site_type": "business"
  },
  {
    "name": "the-savchenko-102",
    "city": "Kyiv",
    "country": "UA",
    "lat": 50.3056,
    "lng": 30.1083,
    "relay": "https://box-hetzner-helsinki.macula.io:4433",
    "site_type": "family"
  },
  {
    "name": "casa-silva-103",
    "city": "Porto",
    "country": "PT",
    "lat": 41.2715,
    "lng": -7.7759,
    "relay": "https://box-hetzner-nuremberg.macula.io:4433",
    "site_type": "family"
  },
  {
    "name": "malmo-digital-hub-104",
    "city": "Malmo",
    "country": "SE",
    "lat": 56.0092,
    "lng": 14.5151,
    "relay": "https://box-hetzner-helsinki.macula.io:4433",
    "site_type": "business"
  },
  {
    "name": "casa-ferreira-105",
    "city": "Porto",
    "country": "PT",
    "lat": 41.9909,
    "lng": -7.8847,
    "relay": "https://box-hetzner-nuremberg.macula.io:4433",
    "site_type": "family"
  },
  {
    "name": "ghent-data-hub-106",
    "city": "Ghent",
    "country": "BE",
    "lat": 50.9246,
    "lng": 3.7987,
    "relay": "https://box-hetzner-nuremberg.macula.io:4433",
    "site_type": "business"
  },
  {
    "name": "familie-weber-107",
    "city": "Munich",
    "country": "DE",
    "lat": 48.0357,
    "lng": 11.436,
    "relay": "https://box-hetzner-nuremberg.macula.io:4433",
    "site_type": "family"
  },
  {
    "name": "the-gheorghe-108",
    "city": "Cluj-Napoca",
    "country": "RO",
    "lat": 47.4234,
    "lng": 24.0083,
    "relay": "https://box-hetzner-helsinki.macula.io:4433",
    "site_type": "family"
  },
  {
    "name": "porto-app-pro-109",
    "city": "Porto",
    "country": "PT",
    "lat": 40.9452,
    "lng": -9.4636,
    "relay": "https://box-hetzner-nuremberg.macula.io:4433",
    "site_type": "business"
  },
  {
    "name": "casa-rossi-110",
    "city": "Rome",
    "country": "IT",
    "lat": 40.4431,
    "lng": 11.2579,
    "relay": "https://box-hetzner-nuremberg.macula.io:4433",
    "site_type": "family"
  },
  {
    "name": "munich-wind-pro-111",
    "city": "Munich",
    "country": "DE",
    "lat": 47.3848,
    "lng": 10.6592,
    "relay": "https://box-hetzner-nuremberg.macula.io:4433",
    "site_type": "business"
  },
  {
    "name": "the-popescu-112",
    "city": "Constanta",
    "country": "RO",
    "lat": 43.167,
    "lng": 27.79,
    "relay": "https://box-hetzner-helsinki.macula.io:4433",
    "site_type": "family"
  },
  {
    "name": "the-kovacevic-113",
    "city": "Zagreb",
    "country": "HR",
    "lat": 44.4358,
    "lng": 16.4894,
    "relay": "https://box-hetzner-nuremberg.macula.io:4433",
    "site_type": "family"
  },
  {
    "name": "dresden-green-hub-114",
    "city": "Dresden",
    "country": "DE",
    "lat": 51.4644,
    "lng": 14.2441,
    "relay": "https://box-hetzner-nuremberg.macula.io:4433",
    "site_type": "business"
  },
  {
    "name": "the-mazur-115",
    "city": "Ivano-Frankivsk",
    "country": "UA",
    "lat": 48.2601,
    "lng": 23.6582,
    "relay": "https://box-hetzner-helsinki.macula.io:4433",
    "site_type": "family"
  },
  {
    "name": "iasi-logistics-hub-116",
    "city": "Iasi",
    "country": "RO",
    "lat": 46.9664,
    "lng": 27.2214,
    "relay": "https://box-hetzner-helsinki.macula.io:4433",
    "site_type": "business"
  },
  {
    "name": "familie-wagner-117",
    "city": "Frankfurt",
    "country": "DE",
    "lat": 51.3441,
    "lng": 9.3837,
    "relay": "https://box-hetzner-nuremberg.macula.io:4433",
    "site_type": "family"
  },
  {
    "name": "the-schneider-118",
    "city": "Geneva",
    "country": "CH",
    "lat": 45.8574,
    "lng": 5.9478,
    "relay": "https://box-hetzner-nuremberg.macula.io:4433",
    "site_type": "family"
  },
  {
    "name": "munich-freight-pro-119",
    "city": "Munich",
    "country": "DE",
    "lat": 47.5107,
    "lng": 11.4458,
    "relay": "https://box-hetzner-nuremberg.macula.io:4433",
    "site_type": "business"
  },
  {
    "name": "the-eriksson-120",
    "city": "Uppsala",
    "country": "SE",
    "lat": 59.4188,
    "lng": 15.7694,
    "relay": "https://box-hetzner-helsinki.macula.io:4433",
    "site_type": "family"
  },
  {
    "name": "graz-press-pro-121",
    "city": "Graz",
    "country": "AT",
    "lat": 47.2592,
    "lng": 14.3935,
    "relay": "https://box-hetzner-nuremberg.macula.io:4433",
    "site_type": "business"
  },
  {
    "name": "the-vujovic-122",
    "city": "Podgorica",
    "country": "ME",
    "lat": 42.4145,
    "lng": 18.9422,
    "relay": "https://box-hetzner-nuremberg.macula.io:4433",
    "site_type": "family"
  },
  {
    "name": "famille-bonnet-123",
    "city": "Marseille",
    "country": "FR",
    "lat": 37.4522,
    "lng": 7.1233,
    "relay": "https://box-hetzner-nuremberg.macula.io:4433",
    "site_type": "family"
  },
  {
    "name": "nantes-legal-hub-124",
    "city": "Nantes",
    "country": "FR",
    "lat": 47.0724,
    "lng": 0.4379,
    "relay": "https://box-hetzner-nuremberg.macula.io:4433",
    "site_type": "business"
  },
  {
    "name": "the-ozols-125",
    "city": "Riga",
    "country": "LV",
    "lat": 57.0678,
    "lng": 22.9619,
    "relay": "https://box-hetzner-helsinki.macula.io:4433",
    "site_type": "family"
  },
  {
    "name": "prague-audit-hub-126",
    "city": "Prague",
    "country": "CZ",
    "lat": 49.789,
    "lng": 15.522,
    "relay": "https://box-hetzner-helsinki.macula.io:4433",
    "site_type": "business"
  },
  {
    "name": "casa-sanchez-127",
    "city": "Bilbao",
    "country": "ES",
    "lat": 42.9878,
    "lng": -3.6979,
    "relay": "https://box-hetzner-nuremberg.macula.io:4433",
    "site_type": "family"
  },
  {
    "name": "familie-hoffmann-128",
    "city": "Cologne",
    "country": "DE",
    "lat": 50.8313,
    "lng": 7.2185,
    "relay": "https://box-hetzner-nuremberg.macula.io:4433",
    "site_type": "family"
  },
  {
    "name": "timisoar-arch-pro-129",
    "city": "Timisoara",
    "country": "RO",
    "lat": 46.4496,
    "lng": 20.3558,
    "relay": "https://box-hetzner-helsinki.macula.io:4433",
    "site_type": "business"
  },
  {
    "name": "familie-mueller-130",
    "city": "Hamburg",
    "country": "DE",
    "lat": 54.7532,
    "lng": 8.2038,
    "relay": "https://box-hetzner-nuremberg.macula.io:4433",
    "site_type": "family"
  },
  {
    "name": "hamburg-construct-pro-131",
    "city": "Hamburg",
    "country": "DE",
    "lat": 53.3742,
    "lng": 11.1833,
    "relay": "https://box-hetzner-nuremberg.macula.io:4433",
    "site_type": "business"
  },
  {
    "name": "the-popa-132",
    "city": "Iasi",
    "country": "RO",
    "lat": 46.9195,
    "lng": 27.3866,
    "relay": "https://box-hetzner-helsinki.macula.io:4433",
    "site_type": "family"
  },
  {
    "name": "the-kowalski-133",
    "city": "Warsaw",
    "country": "PL",
    "lat": 53.2479,
    "lng": 21.9482,
    "relay": "https://box-hetzner-helsinki.macula.io:4433",
    "site_type": "family"
  },
  {
    "name": "chisinau-organic-hub-134",
    "city": "Chisinau",
    "country": "MD",
    "lat": 47.9524,
    "lng": 29.6911,
    "relay": "https://box-hetzner-helsinki.macula.io:4433",
    "site_type": "business"
  },
  {
    "name": "the-radulovic-135",
    "city": "Podgorica",
    "country": "ME",
    "lat": 42.6556,
    "lng": 18.6868,
    "relay": "https://box-hetzner-nuremberg.macula.io:4433",
    "site_type": "family"
  },
  {
    "name": "tartu-bakery-hub-136",
    "city": "Tartu",
    "country": "EE",
    "lat": 58.1399,
    "lng": 26.5739,
    "relay": "https://box-hetzner-helsinki.macula.io:4433",
    "site_type": "business"
  },
  {
    "name": "casa-ricci-137",
    "city": "Palermo",
    "country": "IT",
    "lat": 38.2288,
    "lng": 13.7277,
    "relay": "https://box-hetzner-nuremberg.macula.io:4433",
    "site_type": "family"
  },
  {
    "name": "van-mulder-138",
    "city": "Groningen",
    "country": "NL",
    "lat": 53.3683,
    "lng": 5.6015,
    "relay": "https://box-hetzner-nuremberg.macula.io:4433",
    "site_type": "family"
  },
  {
    "name": "bratisla-clinic-pro-139",
    "city": "Bratislava",
    "country": "SK",
    "lat": 48.328,
    "lng": 17.7988,
    "relay": "https://box-hetzner-helsinki.macula.io:4433",
    "site_type": "business"
  },
  {
    "name": "casa-rossi-140",
    "city": "Naples",
    "country": "IT",
    "lat": 39.7842,
    "lng": 15.2202,
    "relay": "https://box-hetzner-nuremberg.macula.io:4433",
    "site_type": "family"
  },
  {
    "name": "tirana-gym-pro-141",
    "city": "Tirana",
    "country": "AL",
    "lat": 41.3508,
    "lng": 20.2029,
    "relay": "https://box-hetzner-nuremberg.macula.io:4433",
    "site_type": "business"
  },
  {
    "name": "casa-gonzalez-142",
    "city": "Valencia",
    "country": "ES",
    "lat": 36.4729,
    "lng": -0.3382,
    "relay": "https://box-hetzner-nuremberg.macula.io:4433",
    "site_type": "family"
  },
  {
    "name": "van-bakker-143",
    "city": "Groningen",
    "country": "NL",
    "lat": 54.2499,
    "lng": 6.9926,
    "relay": "https://box-hetzner-nuremberg.macula.io:4433",
    "site_type": "family"
  },
  {
    "name": "vilnius-florist-hub-144",
    "city": "Vilnius",
    "country": "LT",
    "lat": 54.5651,
    "lng": 24.7609,
    "relay": "https://box-hetzner-helsinki.macula.io:4433",
    "site_type": "business"
  },
  {
    "name": "familie-becker-145",
    "city": "Stuttgart",
    "country": "DE",
    "lat": 48.1714,
    "lng": 10.204,
    "relay": "https://box-hetzner-nuremberg.macula.io:4433",
    "site_type": "family"
  },
  {
    "name": "bari-vet-hub-146",
    "city": "Bari",
    "country": "IT",
    "lat": 43.1232,
    "lng": 16.1031,
    "relay": "https://box-hetzner-nuremberg.macula.io:4433",
    "site_type": "business"
  },
  {
    "name": "the-moraru-147",
    "city": "Chisinau",
    "country": "MD",
    "lat": 47.6654,
    "lng": 29.0777,
    "relay": "https://box-hetzner-helsinki.macula.io:4433",
    "site_type": "family"
  },
  {
    "name": "the-mueller-148",
    "city": "Zurich",
    "country": "CH",
    "lat": 46.5629,
    "lng": 8.4035,
    "relay": "https://box-hetzner-nuremberg.macula.io:4433",
    "site_type": "family"
  },
  {
    "name": "leipzig-lab-pro-149",
    "city": "Leipzig",
    "country": "DE",
    "lat": 51.4088,
    "lng": 11.7259,
    "relay": "https://box-hetzner-nuremberg.macula.io:4433",
    "site_type": "business"
  },
  {
    "name": "the-georgiev-150",
    "city": "Plovdiv",
    "country": "BG",
    "lat": 42.3137,
    "lng": 25.1747,
    "relay": "https://box-hetzner-helsinki.macula.io:4433",
    "site_type": "family"
  },
  {
    "name": "tartu-brewery-pro-151",
    "city": "Tartu",
    "country": "EE",
    "lat": 57.6693,
    "lng": 25.7889,
    "relay": "https://box-hetzner-helsinki.macula.io:4433",
    "site_type": "business"
  },
  {
    "name": "the-kaminski-152",
    "city": "Warsaw",
    "country": "PL",
    "lat": 52.4296,
    "lng": 21.7438,
    "relay": "https://box-hetzner-helsinki.macula.io:4433",
    "site_type": "family"
  },
  {
    "name": "the-christensen-153",
    "city": "Aarhus",
    "country": "DK",
    "lat": 55.0083,
    "lng": 11.0508,
    "relay": "https://box-hetzner-helsinki.macula.io:4433",
    "site_type": "family"
  },
  {
    "name": "luxembou-workshop-hub-154",
    "city": "Luxembourg",
    "country": "LU",
    "lat": 49.6173,
    "lng": 6.0158,
    "relay": "https://box-hetzner-nuremberg.macula.io:4433",
    "site_type": "business"
  },
  {
    "name": "the-heikkinen-155",
    "city": "Oulu",
    "country": "FI",
    "lat": 65.844,
    "lng": 22.8789,
    "relay": "https://box-hetzner-helsinki.macula.io:4433",
    "site_type": "family"
  },
  {
    "name": "severodo-tech-hub-156",
    "city": "Severodonetsk",
    "country": "UA",
    "lat": 51.7365,
    "lng": 40.1796,
    "relay": "https://box-hetzner-helsinki.macula.io:4433",
    "site_type": "business"
  },
  {
    "name": "the-kowalski-157",
    "city": "Katowice",
    "country": "PL",
    "lat": 49.545,
    "lng": 18.8194,
    "relay": "https://box-hetzner-helsinki.macula.io:4433",
    "site_type": "family"
  },
  {
    "name": "the-zinchenko-158",
    "city": "Mariupol",
    "country": "UA",
    "lat": 44.5552,
    "lng": 36.9356,
    "relay": "https://box-hetzner-helsinki.macula.io:4433",
    "site_type": "family"
  },
  {
    "name": "bilbao-data-pro-159",
    "city": "Bilbao",
    "country": "ES",
    "lat": 42.9908,
    "lng": -5.052,
    "relay": "https://box-hetzner-nuremberg.macula.io:4433",
    "site_type": "business"
  },
  {
    "name": "the-eriksson-160",
    "city": "Uppsala",
    "country": "SE",
    "lat": 66.7217,
    "lng": 16.9243,
    "relay": "https://box-hetzner-helsinki.macula.io:4433",
    "site_type": "family"
  },
  {
    "name": "tirana-web-pro-161",
    "city": "Tirana",
    "country": "AL",
    "lat": 40.7823,
    "lng": 20.9578,
    "relay": "https://box-hetzner-nuremberg.macula.io:4433",
    "site_type": "business"
  },
  {
    "name": "the-radulovic-162",
    "city": "Podgorica",
    "country": "ME",
    "lat": 42.8433,
    "lng": 19.6347,
    "relay": "https://box-hetzner-nuremberg.macula.io:4433",
    "site_type": "family"
  },
  {
    "name": "the-kovacic-163",
    "city": "Ljubljana",
    "country": "SI",
    "lat": 46.2807,
    "lng": 14.6041,
    "relay": "https://box-hetzner-nuremberg.macula.io:4433",
    "site_type": "family"
  },
  {
    "name": "kaunas-wind-hub-164",
    "city": "Kaunas",
    "country": "LT",
    "lat": 54.4951,
    "lng": 22.3087,
    "relay": "https://box-hetzner-helsinki.macula.io:4433",
    "site_type": "business"
  },
  {
    "name": "the-byrne-165",
    "city": "Dublin",
    "country": "IE",
    "lat": 54.1922,
    "lng": -7.3606,
    "relay": "https://box-hetzner-nuremberg.macula.io:4433",
    "site_type": "family"
  },
  {
    "name": "zagreb-eco-hub-166",
    "city": "Zagreb",
    "country": "HR",
    "lat": 46.4232,
    "lng": 17.037,
    "relay": "https://box-hetzner-nuremberg.macula.io:4433",
    "site_type": "business"
  },
  {
    "name": "famille-dubois-167",
    "city": "Marseille",
    "country": "FR",
    "lat": 37.9028,
    "lng": 7.0835,
    "relay": "https://box-hetzner-nuremberg.macula.io:4433",
    "site_type": "family"
  },
  {
    "name": "the-doyle-168",
    "city": "Cork",
    "country": "IE",
    "lat": 55.3592,
    "lng": -9.5503,
    "relay": "https://box-hetzner-nuremberg.macula.io:4433",
    "site_type": "family"
  },
  {
    "name": "tirana-logistics-pro-169",
    "city": "Tirana",
    "country": "AL",
    "lat": 40.8098,
    "lng": 20.8341,
    "relay": "https://box-hetzner-nuremberg.macula.io:4433",
    "site_type": "business"
  },
  {
    "name": "the-rudenko-170",
    "city": "Uzhhorod",
    "country": "UA",
    "lat": 48.3017,
    "lng": 21.7531,
    "relay": "https://box-hetzner-helsinki.macula.io:4433",
    "site_type": "family"
  },
  {
    "name": "sarajevo-express-pro-171",
    "city": "Sarajevo",
    "country": "BA",
    "lat": 43.881,
    "lng": 18.9573,
    "relay": "https://box-hetzner-nuremberg.macula.io:4433",
    "site_type": "business"
  },
  {
    "name": "the-stoica-172",
    "city": "Constanta",
    "country": "RO",
    "lat": 39.4593,
    "lng": 29.078,
    "relay": "https://box-hetzner-helsinki.macula.io:4433",
    "site_type": "family"
  },
  {
    "name": "the-szabo-173",
    "city": "Budapest",
    "country": "HU",
    "lat": 48.5109,
    "lng": 18.8208,
    "relay": "https://box-hetzner-helsinki.macula.io:4433",
    "site_type": "family"
  },
  {
    "name": "sofia-press-hub-174",
    "city": "Sofia",
    "country": "BG",
    "lat": 43.1944,
    "lng": 22.1599,
    "relay": "https://box-hetzner-helsinki.macula.io:4433",
    "site_type": "business"
  },
  {
    "name": "the-berger-175",
    "city": "Graz",
    "country": "AT",
    "lat": 47.5778,
    "lng": 15.5408,
    "relay": "https://box-hetzner-nuremberg.macula.io:4433",
    "site_type": "family"
  },
  {
    "name": "zagreb-print-hub-176",
    "city": "Zagreb",
    "country": "HR",
    "lat": 44.1431,
    "lng": 15.9632,
    "relay": "https://box-hetzner-nuremberg.macula.io:4433",
    "site_type": "business"
  },
  {
    "name": "casa-ferreira-177",
    "city": "Porto",
    "country": "PT",
    "lat": 40.2045,
    "lng": -6.7293,
    "relay": "https://box-hetzner-nuremberg.macula.io:4433",
    "site_type": "family"
  },
  {
    "name": "the-muller-178",
    "city": "Luxembourg",
    "country": "LU",
    "lat": 49.9261,
    "lng": 6.4637,
    "relay": "https://box-hetzner-nuremberg.macula.io:4433",
    "site_type": "family"
  },
  {
    "name": "bern-audit-pro-179",
    "city": "Bern",
    "country": "CH",
    "lat": 46.6707,
    "lng": 7.3349,
    "relay": "https://box-hetzner-nuremberg.macula.io:4433",
    "site_type": "business"
  },
  {
    "name": "the-weber-180",
    "city": "Luxembourg",
    "country": "LU",
    "lat": 49.8901,
    "lng": 6.0753,
    "relay": "https://box-hetzner-nuremberg.macula.io:4433",
    "site_type": "family"
  },
  {
    "name": "zurich-design-pro-181",
    "city": "Zurich",
    "country": "CH",
    "lat": 47.3133,
    "lng": 8.8768,
    "relay": "https://box-hetzner-nuremberg.macula.io:4433",
    "site_type": "business"
  },
  {
    "name": "de-wouters-182",
    "city": "Charleroi",
    "country": "BE",
    "lat": 49.9154,
    "lng": 3.9966,
    "relay": "https://box-hetzner-nuremberg.macula.io:4433",
    "site_type": "family"
  },
  {
    "name": "the-nieminen-183",
    "city": "Oulu",
    "country": "FI",
    "lat": 64.2268,
    "lng": 29.4163,
    "relay": "https://box-hetzner-helsinki.macula.io:4433",
    "site_type": "family"
  },
  {
    "name": "tartu-construct-hub-184",
    "city": "Tartu",
    "country": "EE",
    "lat": 59.1287,
    "lng": 26.4765,
    "relay": "https://box-hetzner-helsinki.macula.io:4433",
    "site_type": "business"
  },
  {
    "name": "the-cojocaru-185",
    "city": "Chisinau",
    "country": "MD",
    "lat": 47.1942,
    "lng": 28.7177,
    "relay": "https://box-hetzner-helsinki.macula.io:4433",
    "site_type": "family"
  },
  {
    "name": "riga-fresh-hub-186",
    "city": "Riga",
    "country": "LV",
    "lat": 57.557,
    "lng": 23.3459,
    "relay": "https://box-hetzner-helsinki.macula.io:4433",
    "site_type": "business"
  },
  {
    "name": "the-moser-187",
    "city": "Salzburg",
    "country": "AT",
    "lat": 47.8416,
    "lng": 12.6151,
    "relay": "https://box-hetzner-nuremberg.macula.io:4433",
    "site_type": "family"
  },
  {
    "name": "the-berzins-188",
    "city": "Riga",
    "country": "LV",
    "lat": 58.5539,
    "lng": 22.9299,
    "relay": "https://box-hetzner-helsinki.macula.io:4433",
    "site_type": "family"
  },
  {
    "name": "gdansk-bakery-pro-189",
    "city": "Gdansk",
    "country": "PL",
    "lat": 56.0476,
    "lng": 17.0611,
    "relay": "https://box-hetzner-helsinki.macula.io:4433",
    "site_type": "business"
  },
  {
    "name": "the-begovic-190",
    "city": "Sarajevo",
    "country": "BA",
    "lat": 43.7159,
    "lng": 19.1547,
    "relay": "https://box-hetzner-nuremberg.macula.io:4433",
    "site_type": "family"
  },
  {
    "name": "dublin-pharmacy-pro-191",
    "city": "Dublin",
    "country": "IE",
    "lat": 53.6379,
    "lng": -7.6344,
    "relay": "https://box-hetzner-nuremberg.macula.io:4433",
    "site_type": "business"
  },
  {
    "name": "familie-koch-192",
    "city": "Dusseldorf",
    "country": "DE",
    "lat": 51.4832,
    "lng": 6.4514,
    "relay": "https://box-hetzner-nuremberg.macula.io:4433",
    "site_type": "family"
  },
  {
    "name": "the-stankevic-193",
    "city": "Vilnius",
    "country": "LT",
    "lat": 54.4899,
    "lng": 26.0555,
    "relay": "https://box-hetzner-helsinki.macula.io:4433",
    "site_type": "family"
  },
  {
    "name": "chisinau-gym-hub-194",
    "city": "Chisinau",
    "country": "MD",
    "lat": 47.8267,
    "lng": 29.7245,
    "relay": "https://box-hetzner-helsinki.macula.io:4433",
    "site_type": "business"
  },
  {
    "name": "the-oliynyk-195",
    "city": "Uzhhorod",
    "country": "UA",
    "lat": 48.3852,
    "lng": 22.549,
    "relay": "https://box-hetzner-helsinki.macula.io:4433",
    "site_type": "family"
  },
  {
    "name": "odessa-garage-hub-196",
    "city": "Odessa",
    "country": "UA",
    "lat": 46.2531,
    "lng": 30.1984,
    "relay": "https://box-hetzner-helsinki.macula.io:4433",
    "site_type": "business"
  },
  {
    "name": "the-harris-197",
    "city": "Belfast",
    "country": "GB",
    "lat": 55.1596,
    "lng": -8.8836,
    "relay": "https://box-hetzner-nuremberg.macula.io:4433",
    "site_type": "family"
  },
  {
    "name": "familie-wagner-198",
    "city": "Dresden",
    "country": "DE",
    "lat": 50.2044,
    "lng": 12.8502,
    "relay": "https://box-hetzner-nuremberg.macula.io:4433",
    "site_type": "family"
  },
  {
    "name": "dusseldo-vet-pro-199",
    "city": "Dusseldorf",
    "country": "DE",
    "lat": 52.169,
    "lng": 6.5693,
    "relay": "https://box-hetzner-nuremberg.macula.io:4433",
    "site_type": "business"
  },
  {
    "name": "the-nagy-200",
    "city": "Bratislava",
    "country": "SK",
    "lat": 48.0033,
    "lng": 16.9608,
    "relay": "https://box-hetzner-helsinki.macula.io:4433",
    "site_type": "family"
  },
  {
    "name": "munich-salon-pro-201",
    "city": "Munich",
    "country": "DE",
    "lat": 47.014,
    "lng": 10.6827,
    "relay": "https://box-hetzner-nuremberg.macula.io:4433",
    "site_type": "business"
  },
  {
    "name": "the-novak-202",
    "city": "Prague",
    "country": "CZ",
    "lat": 50.279,
    "lng": 15.607,
    "relay": "https://box-hetzner-helsinki.macula.io:4433",
    "site_type": "family"
  },
  {
    "name": "the-mazur-203",
    "city": "Vinnytsia",
    "country": "UA",
    "lat": 48.2169,
    "lng": 28.0289,
    "relay": "https://box-hetzner-helsinki.macula.io:4433",
    "site_type": "family"
  },
  {
    "name": "debrecen-brewery-hub-204",
    "city": "Debrecen",
    "country": "HU",
    "lat": 48.1057,
    "lng": 21.7148,
    "relay": "https://box-hetzner-helsinki.macula.io:4433",
    "site_type": "business"
  },
  {
    "name": "van-van-dijk-205",
    "city": "Den Haag",
    "country": "NL",
    "lat": 52.2196,
    "lng": 3.7458,
    "relay": "https://box-hetzner-nuremberg.macula.io:4433",
    "site_type": "family"
  },
  {
    "name": "nicosia-creamery-hub-206",
    "city": "Nicosia",
    "country": "CY",
    "lat": 38.6517,
    "lng": 29.2575,
    "relay": "https://box-hetzner-nuremberg.macula.io:4433",
    "site_type": "business"
  },
  {
    "name": "casa-ricci-207",
    "city": "Milan",
    "country": "IT",
    "lat": 46.1518,
    "lng": 10.1134,
    "relay": "https://box-hetzner-nuremberg.macula.io:4433",
    "site_type": "family"
  },
  {
    "name": "the-horvat-208",
    "city": "Zagreb",
    "country": "HR",
    "lat": 45.2214,
    "lng": 16.3814,
    "relay": "https://box-hetzner-nuremberg.macula.io:4433",
    "site_type": "family"
  },
  {
    "name": "tirana-tech-pro-209",
    "city": "Tirana",
    "country": "AL",
    "lat": 42.2501,
    "lng": 20.3552,
    "relay": "https://box-hetzner-nuremberg.macula.io:4433",
    "site_type": "business"
  },
  {
    "name": "the-muller-210",
    "city": "Luxembourg",
    "country": "LU",
    "lat": 49.4578,
    "lng": 5.7999,
    "relay": "https://box-hetzner-nuremberg.macula.io:4433",
    "site_type": "family"
  },
  {
    "name": "szczecin-cloud-pro-211",
    "city": "Szczecin",
    "country": "PL",
    "lat": 52.5959,
    "lng": 14.6087,
    "relay": "https://box-hetzner-helsinki.macula.io:4433",
    "site_type": "business"
  },
  {
    "name": "the-savchenko-212",
    "city": "Kherson",
    "country": "UA",
    "lat": 46.2087,
    "lng": 32.6417,
    "relay": "https://box-hetzner-helsinki.macula.io:4433",
    "site_type": "family"
  },
  {
    "name": "the-marchenko-213",
    "city": "Uzhhorod",
    "country": "UA",
    "lat": 47.8424,
    "lng": 22.4806,
    "relay": "https://box-hetzner-helsinki.macula.io:4433",
    "site_type": "family"
  },
  {
    "name": "cardiff-web-hub-214",
    "city": "Cardiff",
    "country": "GB",
    "lat": 50.2413,
    "lng": -3.4741,
    "relay": "https://box-hetzner-nuremberg.macula.io:4433",
    "site_type": "business"
  },
  {
    "name": "famille-morel-215",
    "city": "Lyon",
    "country": "FR",
    "lat": 45.2876,
    "lng": 2.9712,
    "relay": "https://box-hetzner-nuremberg.macula.io:4433",
    "site_type": "family"
  },
  {
    "name": "oslo-solar-hub-216",
    "city": "Oslo",
    "country": "NO",
    "lat": 60.582,
    "lng": 11.5206,
    "relay": "https://box-hetzner-helsinki.macula.io:4433",
    "site_type": "business"
  },
  {
    "name": "the-stankevic-217",
    "city": "Klaipeda",
    "country": "LT",
    "lat": 54.0107,
    "lng": 21.3708,
    "relay": "https://box-hetzner-helsinki.macula.io:4433",
    "site_type": "family"
  },
  {
    "name": "familie-hoffmann-218",
    "city": "Munich",
    "country": "DE",
    "lat": 47.0467,
    "lng": 12.0706,
    "relay": "https://box-hetzner-nuremberg.macula.io:4433",
    "site_type": "family"
  },
  {
    "name": "lyon-eco-pro-219",
    "city": "Lyon",
    "country": "FR",
    "lat": 44.7277,
    "lng": 5.7716,
    "relay": "https://box-hetzner-nuremberg.macula.io:4433",
    "site_type": "business"
  },
  {
    "name": "the-stojanovski-220",
    "city": "Skopje",
    "country": "MK",
    "lat": 40.9498,
    "lng": 21.2739,
    "relay": "https://box-hetzner-nuremberg.macula.io:4433",
    "site_type": "family"
  },
  {
    "name": "ghent-smart-pro-221",
    "city": "Ghent",
    "country": "BE",
    "lat": 51.4637,
    "lng": 3.8468,
    "relay": "https://box-hetzner-nuremberg.macula.io:4433",
    "site_type": "business"
  },
  {
    "name": "the-schmid-222",
    "city": "Zurich",
    "country": "CH",
    "lat": 47.4969,
    "lng": 9.1429,
    "relay": "https://box-hetzner-nuremberg.macula.io:4433",
    "site_type": "family"
  },
  {
    "name": "the-nieminen-223",
    "city": "Oulu",
    "country": "FI",
    "lat": 69.3945,
    "lng": 22.7538,
    "relay": "https://box-hetzner-helsinki.macula.io:4433",
    "site_type": "family"
  },
  {
    "name": "hamburg-express-hub-224",
    "city": "Hamburg",
    "country": "DE",
    "lat": 53.6707,
    "lng": 10.923,
    "relay": "https://box-hetzner-nuremberg.macula.io:4433",
    "site_type": "business"
  },
  {
    "name": "the-balan-225",
    "city": "Kosice",
    "country": "SK",
    "lat": 49.0966,
    "lng": 21.4684,
    "relay": "https://box-hetzner-helsinki.macula.io:4433",
    "site_type": "family"
  },
  {
    "name": "iasi-media-hub-226",
    "city": "Iasi",
    "country": "RO",
    "lat": 46.5273,
    "lng": 26.688,
    "relay": "https://box-hetzner-helsinki.macula.io:4433",
    "site_type": "business"
  },
  {
    "name": "the-angelov-227",
    "city": "Sofia",
    "country": "BG",
    "lat": 43.647,
    "lng": 23.1208,
    "relay": "https://box-hetzner-helsinki.macula.io:4433",
    "site_type": "family"
  },
  {
    "name": "de-de-smedt-228",
    "city": "Brussels",
    "country": "BE",
    "lat": 50.686,
    "lng": 4.2831,
    "relay": "https://box-hetzner-nuremberg.macula.io:4433",
    "site_type": "family"
  },
  {
    "name": "klaipeda-print-pro-229",
    "city": "Klaipeda",
    "country": "LT",
    "lat": 57.8428,
    "lng": 21.9311,
    "relay": "https://box-hetzner-helsinki.macula.io:4433",
    "site_type": "business"
  },
  {
    "name": "the-walker-230",
    "city": "Cardiff",
    "country": "GB",
    "lat": 52.6337,
    "lng": -4.4257,
    "relay": "https://box-hetzner-nuremberg.macula.io:4433",
    "site_type": "family"
  },
  {
    "name": "sarajevo-consult-pro-231",
    "city": "Sarajevo",
    "country": "BA",
    "lat": 43.4237,
    "lng": 18.7247,
    "relay": "https://box-hetzner-nuremberg.macula.io:4433",
    "site_type": "business"
  },
  {
    "name": "the-robinson-232",
    "city": "Edinburgh",
    "country": "GB",
    "lat": 56.186,
    "lng": -1.0157,
    "relay": "https://box-hetzner-nuremberg.macula.io:4433",
    "site_type": "family"
  },
  {
    "name": "familie-weber-233",
    "city": "Hamburg",
    "country": "DE",
    "lat": 54.7383,
    "lng": 8.3967,
    "relay": "https://box-hetzner-nuremberg.macula.io:4433",
    "site_type": "family"
  },
  {
    "name": "tirana-design-hub-234",
    "city": "Tirana",
    "country": "AL",
    "lat": 40.1648,
    "lng": 19.8767,
    "relay": "https://box-hetzner-nuremberg.macula.io:4433",
    "site_type": "business"
  },
  {
    "name": "the-berger-235",
    "city": "Graz",
    "country": "AT",
    "lat": 47.0627,
    "lng": 16.1731,
    "relay": "https://box-hetzner-nuremberg.macula.io:4433",
    "site_type": "family"
  },
  {
    "name": "oulu-build-hub-236",
    "city": "Oulu",
    "country": "FI",
    "lat": 65.815,
    "lng": 31.2664,
    "relay": "https://box-hetzner-helsinki.macula.io:4433",
    "site_type": "business"
  },
  {
    "name": "van-mulder-237",
    "city": "Eindhoven",
    "country": "NL",
    "lat": 51.6141,
    "lng": 5.6164,
    "relay": "https://box-hetzner-nuremberg.macula.io:4433",
    "site_type": "family"
  },
  {
    "name": "the-kravchenko-238",
    "city": "Chernivtsi",
    "country": "UA",
    "lat": 47.5729,
    "lng": 25.0094,
    "relay": "https://box-hetzner-helsinki.macula.io:4433",
    "site_type": "family"
  },
  {
    "name": "sofia-fresh-pro-239",
    "city": "Sofia",
    "country": "BG",
    "lat": 44.1123,
    "lng": 23.8725,
    "relay": "https://box-hetzner-helsinki.macula.io:4433",
    "site_type": "business"
  },
  {
    "name": "the-polishchuk-240",
    "city": "Lviv",
    "country": "UA",
    "lat": 50.7543,
    "lng": 24.0176,
    "relay": "https://box-hetzner-helsinki.macula.io:4433",
    "site_type": "family"
  },
  {
    "name": "szczecin-market-pro-241",
    "city": "Szczecin",
    "country": "PL",
    "lat": 53.5172,
    "lng": 14.8832,
    "relay": "https://box-hetzner-helsinki.macula.io:4433",
    "site_type": "business"
  },
  {
    "name": "the-muller-242",
    "city": "Luxembourg",
    "country": "LU",
    "lat": 49.69,
    "lng": 6.3326,
    "relay": "https://box-hetzner-nuremberg.macula.io:4433",
    "site_type": "family"
  },
  {
    "name": "the-prochazka-243",
    "city": "Brno",
    "country": "CZ",
    "lat": 50.0772,
    "lng": 16.9968,
    "relay": "https://box-hetzner-helsinki.macula.io:4433",
    "site_type": "family"
  },
  {
    "name": "tirana-pharmacy-hub-244",
    "city": "Tirana",
    "country": "AL",
    "lat": 41.7054,
    "lng": 20.185,
    "relay": "https://box-hetzner-nuremberg.macula.io:4433",
    "site_type": "business"
  },
  {
    "name": "the-kovacevic-245",
    "city": "Sarajevo",
    "country": "BA",
    "lat": 44.5016,
    "lng": 17.9004,
    "relay": "https://box-hetzner-nuremberg.macula.io:4433",
    "site_type": "family"
  },
  {
    "name": "iasi-school-hub-246",
    "city": "Iasi",
    "country": "RO",
    "lat": 47.0783,
    "lng": 28.0808,
    "relay": "https://box-hetzner-helsinki.macula.io:4433",
    "site_type": "business"
  },
  {
    "name": "the-djuric-247",
    "city": "Sarajevo",
    "country": "BA",
    "lat": 43.9777,
    "lng": 18.9722,
    "relay": "https://box-hetzner-nuremberg.macula.io:4433",
    "site_type": "family"
  },
  {
    "name": "the-eder-248",
    "city": "Salzburg",
    "country": "AT",
    "lat": 47.9151,
    "lng": 12.7236,
    "relay": "https://box-hetzner-nuremberg.macula.io:4433",
    "site_type": "family"
  },
  {
    "name": "timisoar-garage-pro-249",
    "city": "Timisoara",
    "country": "RO",
    "lat": 44.8494,
    "lng": 22.113,
    "relay": "https://box-hetzner-helsinki.macula.io:4433",
    "site_type": "business"
  },
  {
    "name": "familie-fischer-250",
    "city": "Dresden",
    "country": "DE",
    "lat": 50.9793,
    "lng": 13.9348,
    "relay": "https://box-hetzner-nuremberg.macula.io:4433",
    "site_type": "family"
  },
  {
    "name": "ljubljan-dentist-pro-251",
    "city": "Ljubljana",
    "country": "SI",
    "lat": 45.7303,
    "lng": 13.6531,
    "relay": "https://box-hetzner-nuremberg.macula.io:4433",
    "site_type": "business"
  },
  {
    "name": "the-weber-252",
    "city": "Luxembourg",
    "country": "LU",
    "lat": 49.6537,
    "lng": 5.765,
    "relay": "https://box-hetzner-nuremberg.macula.io:4433",
    "site_type": "family"
  },
  {
    "name": "the-stoica-253",
    "city": "Constanta",
    "country": "RO",
    "lat": 43.3319,
    "lng": 27.9649,
    "relay": "https://box-hetzner-helsinki.macula.io:4433",
    "site_type": "family"
  },
  {
    "name": "lisbon-salon-hub-254",
    "city": "Lisbon",
    "country": "PT",
    "lat": 38.7395,
    "lng": -8.9587,
    "relay": "https://box-hetzner-nuremberg.macula.io:4433",
    "site_type": "business"
  },
  {
    "name": "the-marin-255",
    "city": "Timisoara",
    "country": "RO",
    "lat": 44.9406,
    "lng": 22.0049,
    "relay": "https://box-hetzner-helsinki.macula.io:4433",
    "site_type": "family"
  },
  {
    "name": "turin-farm-hub-256",
    "city": "Turin",
    "country": "IT",
    "lat": 45.4038,
    "lng": 7.158,
    "relay": "https://box-hetzner-nuremberg.macula.io:4433",
    "site_type": "business"
  },
  {
    "name": "the-meier-257",
    "city": "Zurich",
    "country": "CH",
    "lat": 48.1396,
    "lng": 8.6676,
    "relay": "https://box-hetzner-nuremberg.macula.io:4433",
    "site_type": "family"
  },
  {
    "name": "the-radulovic-258",
    "city": "Podgorica",
    "country": "ME",
    "lat": 42.5317,
    "lng": 19.174,
    "relay": "https://box-hetzner-nuremberg.macula.io:4433",
    "site_type": "family"
  },
  {
    "name": "debrecen-creamery-pro-259",
    "city": "Debrecen",
    "country": "HU",
    "lat": 47.4451,
    "lng": 20.9618,
    "relay": "https://box-hetzner-helsinki.macula.io:4433",
    "site_type": "business"
  },
  {
    "name": "casa-rodriguez-260",
    "city": "Valencia",
    "country": "ES",
    "lat": 40.8822,
    "lng": -0.536,
    "relay": "https://box-hetzner-nuremberg.macula.io:4433",
    "site_type": "family"
  },
  {
    "name": "podgoric-forge-pro-261",
    "city": "Podgorica",
    "country": "ME",
    "lat": 42.287,
    "lng": 20.2621,
    "relay": "https://box-hetzner-nuremberg.macula.io:4433",
    "site_type": "business"
  },
  {
    "name": "the-toth-262",
    "city": "Debrecen",
    "country": "HU",
    "lat": 48.0727,
    "lng": 21.5984,
    "relay": "https://box-hetzner-helsinki.macula.io:4433",
    "site_type": "family"
  },
  {
    "name": "the-hoffmann-263",
    "city": "Luxembourg",
    "country": "LU",
    "lat": 50.1804,
    "lng": 6.3816,
    "relay": "https://box-hetzner-nuremberg.macula.io:4433",
    "site_type": "family"
  },
  {
    "name": "sofia-cloud-hub-264",
    "city": "Sofia",
    "country": "BG",
    "lat": 43.9264,
    "lng": 24.2687,
    "relay": "https://box-hetzner-helsinki.macula.io:4433",
    "site_type": "business"
  },
  {
    "name": "the-christensen-265",
    "city": "Copenhagen",
    "country": "DK",
    "lat": 54.6224,
    "lng": 12.203,
    "relay": "https://box-hetzner-helsinki.macula.io:4433",
    "site_type": "family"
  },
  {
    "name": "prague-cyber-hub-266",
    "city": "Prague",
    "country": "CZ",
    "lat": 49.6419,
    "lng": 12.9353,
    "relay": "https://box-hetzner-helsinki.macula.io:4433",
    "site_type": "business"
  },
  {
    "name": "the-schmid-267",
    "city": "Bern",
    "country": "CH",
    "lat": 46.8564,
    "lng": 8.0093,
    "relay": "https://box-hetzner-nuremberg.macula.io:4433",
    "site_type": "family"
  },
  {
    "name": "the-keller-268",
    "city": "Zurich",
    "country": "CH",
    "lat": 47.0412,
    "lng": 9.5748,
    "relay": "https://box-hetzner-nuremberg.macula.io:4433",
    "site_type": "family"
  },
  {
    "name": "vienna-solar-pro-269",
    "city": "Vienna",
    "country": "AT",
    "lat": 48.5703,
    "lng": 15.8207,
    "relay": "https://box-hetzner-nuremberg.macula.io:4433",
    "site_type": "business"
  },
  {
    "name": "the-tamm-270",
    "city": "Tartu",
    "country": "EE",
    "lat": 57.6179,
    "lng": 25.9354,
    "relay": "https://box-hetzner-helsinki.macula.io:4433",
    "site_type": "family"
  },
  {
    "name": "frankfur-bio-pro-271",
    "city": "Frankfurt",
    "country": "DE",
    "lat": 51.1451,
    "lng": 8.2488,
    "relay": "https://box-hetzner-nuremberg.macula.io:4433",
    "site_type": "business"
  },
  {
    "name": "the-meyer-272",
    "city": "Bern",
    "country": "CH",
    "lat": 46.6311,
    "lng": 7.0388,
    "relay": "https://box-hetzner-nuremberg.macula.io:4433",
    "site_type": "family"
  },
  {
    "name": "the-novak-273",
    "city": "Zagreb",
    "country": "HR",
    "lat": 45.8012,
    "lng": 16.0693,
    "relay": "https://box-hetzner-nuremberg.macula.io:4433",
    "site_type": "family"
  },
  {
    "name": "tartu-smart-hub-274",
    "city": "Tartu",
    "country": "EE",
    "lat": 58.8818,
    "lng": 26.0574,
    "relay": "https://box-hetzner-helsinki.macula.io:4433",
    "site_type": "business"
  },
  {
    "name": "the-vlachos-275",
    "city": "Athens",
    "country": "GR",
    "lat": 37.4385,
    "lng": 20.369,
    "relay": "https://box-hetzner-nuremberg.macula.io:4433",
    "site_type": "family"
  },
  {
    "name": "luxembou-transport-hub-276",
    "city": "Luxembourg",
    "country": "LU",
    "lat": 49.6209,
    "lng": 6.4804,
    "relay": "https://box-hetzner-nuremberg.macula.io:4433",
    "site_type": "business"
  },
  {
    "name": "the-harris-277",
    "city": "London",
    "country": "GB",
    "lat": 53.4092,
    "lng": 0.9508,
    "relay": "https://box-hetzner-nuremberg.macula.io:4433",
    "site_type": "family"
  },
  {
    "name": "the-vujovic-278",
    "city": "Podgorica",
    "country": "ME",
    "lat": 43.0896,
    "lng": 20.2609,
    "relay": "https://box-hetzner-nuremberg.macula.io:4433",
    "site_type": "family"
  },
  {
    "name": "bern-media-pro-279",
    "city": "Bern",
    "country": "CH",
    "lat": 47.7751,
    "lng": 6.2805,
    "relay": "https://box-hetzner-nuremberg.macula.io:4433",
    "site_type": "business"
  },
  {
    "name": "the-kucera-280",
    "city": "Prague",
    "country": "CZ",
    "lat": 51.0482,
    "lng": 15.207,
    "relay": "https://box-hetzner-helsinki.macula.io:4433",
    "site_type": "family"
  },
  {
    "name": "malmo-radio-pro-281",
    "city": "Malmo",
    "country": "SE",
    "lat": 54.8098,
    "lng": 13.7316,
    "relay": "https://box-hetzner-helsinki.macula.io:4433",
    "site_type": "business"
  },
  {
    "name": "the-laine-282",
    "city": "Oulu",
    "country": "FI",
    "lat": 71.0503,
    "lng": 26.9012,
    "relay": "https://box-hetzner-helsinki.macula.io:4433",
    "site_type": "family"
  },
  {
    "name": "the-kovacic-283",
    "city": "Ljubljana",
    "country": "SI",
    "lat": 46.2131,
    "lng": 14.5754,
    "relay": "https://box-hetzner-nuremberg.macula.io:4433",
    "site_type": "family"
  },
  {
    "name": "kaunas-consult-hub-284",
    "city": "Kaunas",
    "country": "LT",
    "lat": 55.3151,
    "lng": 22.9109,
    "relay": "https://box-hetzner-helsinki.macula.io:4433",
    "site_type": "business"
  },
  {
    "name": "famille-simon-285",
    "city": "Strasbourg",
    "country": "FR",
    "lat": 48.2548,
    "lng": 7.8768,
    "relay": "https://box-hetzner-nuremberg.macula.io:4433",
    "site_type": "family"
  },
  {
    "name": "malmo-tax-hub-286",
    "city": "Malmo",
    "country": "SE",
    "lat": 55.8409,
    "lng": 15.6278,
    "relay": "https://box-hetzner-helsinki.macula.io:4433",
    "site_type": "business"
  },
  {
    "name": "the-oconnor-287",
    "city": "Cork",
    "country": "IE",
    "lat": 55.2746,
    "lng": -10.3675,
    "relay": "https://box-hetzner-nuremberg.macula.io:4433",
    "site_type": "family"
  },
  {
    "name": "the-makela-288",
    "city": "Oulu",
    "country": "FI",
    "lat": 65.8197,
    "lng": 20.8433,
    "relay": "https://box-hetzner-helsinki.macula.io:4433",
    "site_type": "family"
  },
  {
    "name": "prague-build-pro-289",
    "city": "Prague",
    "country": "CZ",
    "lat": 49.6836,
    "lng": 13.2023,
    "relay": "https://box-hetzner-helsinki.macula.io:4433",
    "site_type": "business"
  },
  {
    "name": "the-shehu-290",
    "city": "Tirana",
    "country": "AL",
    "lat": 40.7892,
    "lng": 20.8938,
    "relay": "https://box-hetzner-nuremberg.macula.io:4433",
    "site_type": "family"
  },
  {
    "name": "tirana-food-pro-291",
    "city": "Tirana",
    "country": "AL",
    "lat": 42.1995,
    "lng": 20.393,
    "relay": "https://box-hetzner-nuremberg.macula.io:4433",
    "site_type": "business"
  },
  {
    "name": "de-peeters-292",
    "city": "Antwerp",
    "country": "BE",
    "lat": 51.0364,
    "lng": 4.6765,
    "relay": "https://box-hetzner-nuremberg.macula.io:4433",
    "site_type": "family"
  },
  {
    "name": "the-rebane-293",
    "city": "Tallinn",
    "country": "EE",
    "lat": 58.4773,
    "lng": 24.8984,
    "relay": "https://box-hetzner-helsinki.macula.io:4433",
    "site_type": "family"
  },
  {
    "name": "tartu-market-hub-294",
    "city": "Tartu",
    "country": "EE",
    "lat": 60.0349,
    "lng": 27.1014,
    "relay": "https://box-hetzner-helsinki.macula.io:4433",
    "site_type": "business"
  },
  {
    "name": "the-dimitrov-295",
    "city": "Plovdiv",
    "country": "BG",
    "lat": 41.9625,
    "lng": 27.1205,
    "relay": "https://box-hetzner-helsinki.macula.io:4433",
    "site_type": "family"
  },
  {
    "name": "geneva-cafe-hub-296",
    "city": "Geneva",
    "country": "CH",
    "lat": 47.1511,
    "lng": 6.0712,
    "relay": "https://box-hetzner-nuremberg.macula.io:4433",
    "site_type": "business"
  },
  {
    "name": "the-molnar-297",
    "city": "Budapest",
    "country": "HU",
    "lat": 47.2063,
    "lng": 18.051,
    "relay": "https://box-hetzner-helsinki.macula.io:4433",
    "site_type": "family"
  },
  {
    "name": "the-schneider-298",
    "city": "Bern",
    "country": "CH",
    "lat": 46.3869,
    "lng": 7.8819,
    "relay": "https://box-hetzner-nuremberg.macula.io:4433",
    "site_type": "family"
  },
  {
    "name": "frankfur-school-pro-299",
    "city": "Frankfurt",
    "country": "DE",
    "lat": 49.5735,
    "lng": 9.2298,
    "relay": "https://box-hetzner-nuremberg.macula.io:4433",
    "site_type": "business"
  },
  {
    "name": "the-johansson-300",
    "city": "Gothenburg",
    "country": "SE",
    "lat": 56.7949,
    "lng": 11.2529,
    "relay": "https://box-hetzner-helsinki.macula.io:4433",
    "site_type": "family"
  },
  {
    "name": "ljubljan-hotel-pro-301",
    "city": "Ljubljana",
    "country": "SI",
    "lat": 43.8265,
    "lng": 14.0293,
    "relay": "https://box-hetzner-nuremberg.macula.io:4433",
    "site_type": "business"
  },
  {
    "name": "the-toth-302",
    "city": "Budapest",
    "country": "HU",
    "lat": 48.2084,
    "lng": 18.724,
    "relay": "https://box-hetzner-helsinki.macula.io:4433",
    "site_type": "family"
  },
  {
    "name": "the-toth-303",
    "city": "Bratislava",
    "country": "SK",
    "lat": 48.3164,
    "lng": 18.2075,
    "relay": "https://box-hetzner-helsinki.macula.io:4433",
    "site_type": "family"
  },
  {
    "name": "salzburg-dentist-hub-304",
    "city": "Salzburg",
    "country": "AT",
    "lat": 48.9212,
    "lng": 13.7082,
    "relay": "https://box-hetzner-nuremberg.macula.io:4433",
    "site_type": "business"
  },
  {
    "name": "the-larsson-305",
    "city": "Gothenburg",
    "country": "SE",
    "lat": 57.2997,
    "lng": 13.2397,
    "relay": "https://box-hetzner-helsinki.macula.io:4433",
    "site_type": "family"
  },
  {
    "name": "chisinau-studio-hub-306",
    "city": "Chisinau",
    "country": "MD",
    "lat": 48.1033,
    "lng": 29.9347,
    "relay": "https://box-hetzner-helsinki.macula.io:4433",
    "site_type": "business"
  },
  {
    "name": "the-stoica-307",
    "city": "Constanta",
    "country": "RO",
    "lat": 45.1015,
    "lng": 29.2973,
    "relay": "https://box-hetzner-helsinki.macula.io:4433",
    "site_type": "family"
  },
  {
    "name": "the-shehu-308",
    "city": "Tirana",
    "country": "AL",
    "lat": 40.975,
    "lng": 20.7633,
    "relay": "https://box-hetzner-nuremberg.macula.io:4433",
    "site_type": "family"
  },
  {
    "name": "porto-farm-pro-309",
    "city": "Porto",
    "country": "PT",
    "lat": 41.1482,
    "lng": -8.6358,
    "relay": "https://box-hetzner-nuremberg.macula.io:4433",
    "site_type": "business"
  },
  {
    "name": "van-de-jong-310",
    "city": "Rotterdam",
    "country": "NL",
    "lat": 51.9003,
    "lng": 4.364,
    "relay": "https://box-hetzner-nuremberg.macula.io:4433",
    "site_type": "family"
  },
  {
    "name": "riga-winery-pro-311",
    "city": "Riga",
    "country": "LV",
    "lat": 57.2848,
    "lng": 23.6037,
    "relay": "https://box-hetzner-helsinki.macula.io:4433",
    "site_type": "business"
  },
  {
    "name": "the-petrov-312",
    "city": "Skopje",
    "country": "MK",
    "lat": 41.9522,
    "lng": 21.3663,
    "relay": "https://box-hetzner-nuremberg.macula.io:4433",
    "site_type": "family"
  },
  {
    "name": "the-karagiannis-313",
    "city": "Athens",
    "country": "GR",
    "lat": 39.3782,
    "lng": 23.8825,
    "relay": "https://box-hetzner-nuremberg.macula.io:4433",
    "site_type": "family"
  },
  {
    "name": "chisinau-forge-hub-314",
    "city": "Chisinau",
    "country": "MD",
    "lat": 47.4025,
    "lng": 28.4935,
    "relay": "https://box-hetzner-helsinki.macula.io:4433",
    "site_type": "business"
  },
  {
    "name": "the-jovanovic-315",
    "city": "Belgrade",
    "country": "RS",
    "lat": 44.1798,
    "lng": 21.3805,
    "relay": "https://box-hetzner-nuremberg.macula.io:4433",
    "site_type": "family"
  },
  {
    "name": "wroclaw-digital-hub-316",
    "city": "Wroclaw",
    "country": "PL",
    "lat": 50.889,
    "lng": 16.7383,
    "relay": "https://box-hetzner-helsinki.macula.io:4433",
    "site_type": "business"
  },
  {
    "name": "the-virtanen-317",
    "city": "Tampere",
    "country": "FI",
    "lat": 61.9176,
    "lng": 22.7901,
    "relay": "https://box-hetzner-helsinki.macula.io:4433",
    "site_type": "family"
  },
  {
    "name": "familie-koch-318",
    "city": "Munich",
    "country": "DE",
    "lat": 48.9379,
    "lng": 12.0406,
    "relay": "https://box-hetzner-nuremberg.macula.io:4433",
    "site_type": "family"
  },
  {
    "name": "brno-cyber-pro-319",
    "city": "Brno",
    "country": "CZ",
    "lat": 49.0997,
    "lng": 15.7718,
    "relay": "https://box-hetzner-helsinki.macula.io:4433",
    "site_type": "business"
  },
  {
    "name": "the-kaminski-320",
    "city": "Szczecin",
    "country": "PL",
    "lat": 54.0208,
    "lng": 13.2552,
    "relay": "https://box-hetzner-helsinki.macula.io:4433",
    "site_type": "family"
  },
  {
    "name": "lisbon-app-pro-321",
    "city": "Lisbon",
    "country": "PT",
    "lat": 38.2531,
    "lng": -9.0923,
    "relay": "https://box-hetzner-nuremberg.macula.io:4433",
    "site_type": "business"
  },
  {
    "name": "the-stan-322",
    "city": "Constanta",
    "country": "RO",
    "lat": 39.9021,
    "lng": 28.4851,
    "relay": "https://box-hetzner-helsinki.macula.io:4433",
    "site_type": "family"
  },
  {
    "name": "the-vanags-323",
    "city": "Riga",
    "country": "LV",
    "lat": 57.977,
    "lng": 23.1966,
    "relay": "https://box-hetzner-helsinki.macula.io:4433",
    "site_type": "family"
  },
  {
    "name": "oulu-bio-hub-324",
    "city": "Oulu",
    "country": "FI",
    "lat": 67.8544,
    "lng": 26.5021,
    "relay": "https://box-hetzner-helsinki.macula.io:4433",
    "site_type": "business"
  },
  {
    "name": "the-schneider-325",
    "city": "Zurich",
    "country": "CH",
    "lat": 46.769,
    "lng": 8.5605,
    "relay": "https://box-hetzner-nuremberg.macula.io:4433",
    "site_type": "family"
  },
  {
    "name": "skopje-green-hub-326",
    "city": "Skopje",
    "country": "MK",
    "lat": 41.3601,
    "lng": 21.3894,
    "relay": "https://box-hetzner-nuremberg.macula.io:4433",
    "site_type": "business"
  },
  {
    "name": "the-evans-327",
    "city": "London",
    "country": "GB",
    "lat": 52.4231,
    "lng": -0.521,
    "relay": "https://box-hetzner-nuremberg.macula.io:4433",
    "site_type": "family"
  },
  {
    "name": "the-papadopoulos-328",
    "city": "Thessaloniki",
    "country": "GR",
    "lat": 41.4643,
    "lng": 23.2796,
    "relay": "https://box-hetzner-helsinki.macula.io:4433",
    "site_type": "family"
  },
  {
    "name": "podgoric-transport-pro-329",
    "city": "Podgorica",
    "country": "ME",
    "lat": 42.4787,
    "lng": 20.1358,
    "relay": "https://box-hetzner-nuremberg.macula.io:4433",
    "site_type": "business"
  },
  {
    "name": "the-rusu-330",
    "city": "Chisinau",
    "country": "MD",
    "lat": 46.1176,
    "lng": 28.7762,
    "relay": "https://box-hetzner-helsinki.macula.io:4433",
    "site_type": "family"
  },
  {
    "name": "zurich-freight-pro-331",
    "city": "Zurich",
    "country": "CH",
    "lat": 46.7886,
    "lng": 9.0917,
    "relay": "https://box-hetzner-nuremberg.macula.io:4433",
    "site_type": "business"
  },
  {
    "name": "the-jensen-332",
    "city": "Aarhus",
    "country": "DK",
    "lat": 57.0449,
    "lng": 9.0977,
    "relay": "https://box-hetzner-helsinki.macula.io:4433",
    "site_type": "family"
  },
  {
    "name": "the-thompson-333",
    "city": "Belfast",
    "country": "GB",
    "lat": 54.7981,
    "lng": -7.0853,
    "relay": "https://box-hetzner-nuremberg.macula.io:4433",
    "site_type": "family"
  },
  {
    "name": "budapest-radio-hub-334",
    "city": "Budapest",
    "country": "HU",
    "lat": 46.6613,
    "lng": 18.7158,
    "relay": "https://box-hetzner-helsinki.macula.io:4433",
    "site_type": "business"
  },
  {
    "name": "the-trajkovski-335",
    "city": "Skopje",
    "country": "MK",
    "lat": 43.0015,
    "lng": 21.6596,
    "relay": "https://box-hetzner-nuremberg.macula.io:4433",
    "site_type": "family"
  },
  {
    "name": "oulu-legal-hub-336",
    "city": "Oulu",
    "country": "FI",
    "lat": 69.4322,
    "lng": 27.805,
    "relay": "https://box-hetzner-helsinki.macula.io:4433",
    "site_type": "business"
  },
  {
    "name": "casa-garcia-337",
    "city": "Valencia",
    "country": "ES",
    "lat": 41.1965,
    "lng": 0.0787,
    "relay": "https://box-hetzner-nuremberg.macula.io:4433",
    "site_type": "family"
  },
  {
    "name": "the-butkus-338",
    "city": "Klaipeda",
    "country": "LT",
    "lat": 55.9317,
    "lng": 21.089,
    "relay": "https://box-hetzner-helsinki.macula.io:4433",
    "site_type": "family"
  },
  {
    "name": "salzburg-tax-pro-339",
    "city": "Salzburg",
    "country": "AT",
    "lat": 46.6688,
    "lng": 12.9959,
    "relay": "https://box-hetzner-nuremberg.macula.io:4433",
    "site_type": "business"
  },
  {
    "name": "casa-rossi-340",
    "city": "Milan",
    "country": "IT",
    "lat": 45.0162,
    "lng": 8.9671,
    "relay": "https://box-hetzner-nuremberg.macula.io:4433",
    "site_type": "family"
  },
  {
    "name": "geneva-arch-pro-341",
    "city": "Geneva",
    "country": "CH",
    "lat": 45.9575,
    "lng": 6.995,
    "relay": "https://box-hetzner-nuremberg.macula.io:4433",
    "site_type": "business"
  },
  {
    "name": "familie-wagner-342",
    "city": "Hamburg",
    "country": "DE",
    "lat": 52.5981,
    "lng": 9.8265,
    "relay": "https://box-hetzner-nuremberg.macula.io:4433",
    "site_type": "family"
  },
  {
    "name": "familie-becker-343",
    "city": "Berlin",
    "country": "DE",
    "lat": 53.8084,
    "lng": 12.7737,
    "relay": "https://box-hetzner-nuremberg.macula.io:4433",
    "site_type": "family"
  },
  {
    "name": "malmo-food-hub-344",
    "city": "Malmo",
    "country": "SE",
    "lat": 57.1124,
    "lng": 14.7075,
    "relay": "https://box-hetzner-helsinki.macula.io:4433",
    "site_type": "business"
  },
  {
    "name": "the-hamalainen-345",
    "city": "Oulu",
    "country": "FI",
    "lat": 66.9823,
    "lng": 22.9538,
    "relay": "https://box-hetzner-helsinki.macula.io:4433",
    "site_type": "family"
  },
  {
    "name": "naples-organic-hub-346",
    "city": "Naples",
    "country": "IT",
    "lat": 40.1772,
    "lng": 13.5692,
    "relay": "https://box-hetzner-nuremberg.macula.io:4433",
    "site_type": "business"
  },
  {
    "name": "the-ionescu-347",
    "city": "Constanta",
    "country": "RO",
    "lat": 43.7852,
    "lng": 28.1316,
    "relay": "https://box-hetzner-helsinki.macula.io:4433",
    "site_type": "family"
  },
  {
    "name": "casa-ferreira-348",
    "city": "Porto",
    "country": "PT",
    "lat": 41.7327,
    "lng": -7.1892,
    "relay": "https://box-hetzner-nuremberg.macula.io:4433",
    "site_type": "family"
  },
  {
    "name": "cluj-nap-cafe-pro-349",
    "city": "Cluj-Napoca",
    "country": "RO",
    "lat": 45.7583,
    "lng": 24.2566,
    "relay": "https://box-hetzner-helsinki.macula.io:4433",
    "site_type": "business"
  },
  {
    "name": "the-makinen-350",
    "city": "Oulu",
    "country": "FI",
    "lat": 66.4529,
    "lng": 22.6883,
    "relay": "https://box-hetzner-helsinki.macula.io:4433",
    "site_type": "family"
  },
  {
    "name": "luxembou-clinic-pro-351",
    "city": "Luxembourg",
    "country": "LU",
    "lat": 49.6777,
    "lng": 6.4102,
    "relay": "https://box-hetzner-nuremberg.macula.io:4433",
    "site_type": "business"
  },
  {
    "name": "the-hoxha-352",
    "city": "Tirana",
    "country": "AL",
    "lat": 41.8454,
    "lng": 19.4863,
    "relay": "https://box-hetzner-nuremberg.macula.io:4433",
    "site_type": "family"
  },
  {
    "name": "the-rebane-353",
    "city": "Tallinn",
    "country": "EE",
    "lat": 58.5657,
    "lng": 24.0858,
    "relay": "https://box-hetzner-helsinki.macula.io:4433",
    "site_type": "family"
  },
  {
    "name": "lille-hotel-hub-354",
    "city": "Lille",
    "country": "FR",
    "lat": 50.213,
    "lng": 3.5785,
    "relay": "https://box-hetzner-nuremberg.macula.io:4433",
    "site_type": "business"
  },
  {
    "name": "the-hoxha-355",
    "city": "Tirana",
    "country": "AL",
    "lat": 40.8758,
    "lng": 20.6022,
    "relay": "https://box-hetzner-nuremberg.macula.io:4433",
    "site_type": "family"
  },
  {
    "name": "seville-florist-hub-356",
    "city": "Seville",
    "country": "ES",
    "lat": 37.4211,
    "lng": -6.2088,
    "relay": "https://box-hetzner-nuremberg.macula.io:4433",
    "site_type": "business"
  },
  {
    "name": "the-kowalski-357",
    "city": "Krakow",
    "country": "PL",
    "lat": 49.289,
    "lng": 19.4079,
    "relay": "https://box-hetzner-helsinki.macula.io:4433",
    "site_type": "family"
  },
  {
    "name": "the-koppel-358",
    "city": "Tartu",
    "country": "EE",
    "lat": 59.1548,
    "lng": 27.217,
    "relay": "https://box-hetzner-helsinki.macula.io:4433",
    "site_type": "family"
  },
  {
    "name": "chisinau-studio-pro-359",
    "city": "Chisinau",
    "country": "MD",
    "lat": 47.5136,
    "lng": 29.1505,
    "relay": "https://box-hetzner-helsinki.macula.io:4433",
    "site_type": "business"
  },
  {
    "name": "the-petrov-360",
    "city": "Skopje",
    "country": "MK",
    "lat": 40.8891,
    "lng": 21.1775,
    "relay": "https://box-hetzner-nuremberg.macula.io:4433",
    "site_type": "family"
  },
  {
    "name": "timisoar-lab-pro-361",
    "city": "Timisoara",
    "country": "RO",
    "lat": 44.1951,
    "lng": 22.2034,
    "relay": "https://box-hetzner-helsinki.macula.io:4433",
    "site_type": "business"
  },
  {
    "name": "de-wouters-362",
    "city": "Liege",
    "country": "BE",
    "lat": 50.8302,
    "lng": 5.6842,
    "relay": "https://box-hetzner-nuremberg.macula.io:4433",
    "site_type": "family"
  },
  {
    "name": "the-wagner-363",
    "city": "Vienna",
    "country": "AT",
    "lat": 48.5613,
    "lng": 15.995,
    "relay": "https://box-hetzner-nuremberg.macula.io:4433",
    "site_type": "family"
  },
  {
    "name": "kaunas-winery-hub-364",
    "city": "Kaunas",
    "country": "LT",
    "lat": 55.2168,
    "lng": 23.2479,
    "relay": "https://box-hetzner-helsinki.macula.io:4433",
    "site_type": "business"
  },
  {
    "name": "the-meier-365",
    "city": "Geneva",
    "country": "CH",
    "lat": 47.3437,
    "lng": 5.0342,
    "relay": "https://box-hetzner-nuremberg.macula.io:4433",
    "site_type": "family"
  },
  {
    "name": "leipzig-workshop-hub-366",
    "city": "Leipzig",
    "country": "DE",
    "lat": 51.1601,
    "lng": 10.973,
    "relay": "https://box-hetzner-nuremberg.macula.io:4433",
    "site_type": "business"
  },
  {
    "name": "the-ceban-367",
    "city": "Chisinau",
    "country": "MD",
    "lat": 46.8374,
    "lng": 28.555,
    "relay": "https://box-hetzner-helsinki.macula.io:4433",
    "site_type": "family"
  },
  {
    "name": "the-nagy-368",
    "city": "Bratislava",
    "country": "SK",
    "lat": 48.5797,
    "lng": 17.2918,
    "relay": "https://box-hetzner-helsinki.macula.io:4433",
    "site_type": "family"
  },
  {
    "name": "belgrade-digital-pro-369",
    "city": "Belgrade",
    "country": "RS",
    "lat": 44.8459,
    "lng": 20.1212,
    "relay": "https://box-hetzner-nuremberg.macula.io:4433",
    "site_type": "business"
  },
  {
    "name": "the-stoica-370",
    "city": "Timisoara",
    "country": "RO",
    "lat": 46.3165,
    "lng": 21.0654,
    "relay": "https://box-hetzner-helsinki.macula.io:4433",
    "site_type": "family"
  },
  {
    "name": "aarhus-data-pro-371",
    "city": "Aarhus",
    "country": "DK",
    "lat": 55.7605,
    "lng": 8.6974,
    "relay": "https://box-hetzner-helsinki.macula.io:4433",
    "site_type": "business"
  },
  {
    "name": "the-horvath-372",
    "city": "Kosice",
    "country": "SK",
    "lat": 48.1942,
    "lng": 21.472,
    "relay": "https://box-hetzner-helsinki.macula.io:4433",
    "site_type": "family"
  },
  {
    "name": "the-popescu-373",
    "city": "Timisoara",
    "country": "RO",
    "lat": 45.8895,
    "lng": 21.0336,
    "relay": "https://box-hetzner-helsinki.macula.io:4433",
    "site_type": "family"
  },
  {
    "name": "brno-app-hub-374",
    "city": "Brno",
    "country": "CZ",
    "lat": 49.4815,
    "lng": 16.1114,
    "relay": "https://box-hetzner-helsinki.macula.io:4433",
    "site_type": "business"
  },
  {
    "name": "the-paulauskas-375",
    "city": "Kaunas",
    "country": "LT",
    "lat": 55.4479,
    "lng": 24.6831,
    "relay": "https://box-hetzner-helsinki.macula.io:4433",
    "site_type": "family"
  },
  {
    "name": "sarajevo-wind-hub-376",
    "city": "Sarajevo",
    "country": "BA",
    "lat": 43.1243,
    "lng": 18.1836,
    "relay": "https://box-hetzner-nuremberg.macula.io:4433",
    "site_type": "business"
  },
  {
    "name": "the-ponomarenko-377",
    "city": "Uzhhorod",
    "country": "UA",
    "lat": 48.7247,
    "lng": 22.4518,
    "relay": "https://box-hetzner-helsinki.macula.io:4433",
    "site_type": "family"
  },
  {
    "name": "the-muller-378",
    "city": "Luxembourg",
    "country": "LU",
    "lat": 49.9809,
    "lng": 5.8471,
    "relay": "https://box-hetzner-nuremberg.macula.io:4433",
    "site_type": "family"
  },
  {
    "name": "trondhei-green-pro-379",
    "city": "Trondheim",
    "country": "NO",
    "lat": 67.0091,
    "lng": 12.0987,
    "relay": "https://box-hetzner-helsinki.macula.io:4433",
    "site_type": "business"
  },
  {
    "name": "de-wouters-380",
    "city": "Ghent",
    "country": "BE",
    "lat": 51.2632,
    "lng": 3.9915,
    "relay": "https://box-hetzner-nuremberg.macula.io:4433",
    "site_type": "family"
  },
  {
    "name": "cork-logistics-pro-381",
    "city": "Cork",
    "country": "IE",
    "lat": 51.547,
    "lng": -7.6185,
    "relay": "https://box-hetzner-nuremberg.macula.io:4433",
    "site_type": "business"
  },
  {
    "name": "the-kovalenko-382",
    "city": "Melitopol",
    "country": "UA",
    "lat": 45.9542,
    "lng": 35.5527,
    "relay": "https://box-hetzner-helsinki.macula.io:4433",
    "site_type": "family"
  },
  {
    "name": "the-tkachenko-383",
    "city": "Cherkasy",
    "country": "UA",
    "lat": 48.8834,
    "lng": 31.2033,
    "relay": "https://box-hetzner-helsinki.macula.io:4433",
    "site_type": "family"
  },
  {
    "name": "bratisla-freight-hub-384",
    "city": "Bratislava",
    "country": "SK",
    "lat": 49.1322,
    "lng": 17.8848,
    "relay": "https://box-hetzner-helsinki.macula.io:4433",
    "site_type": "business"
  },
  {
    "name": "familie-fischer-385",
    "city": "Munich",
    "country": "DE",
    "lat": 48.3886,
    "lng": 12.1769,
    "relay": "https://box-hetzner-nuremberg.macula.io:4433",
    "site_type": "family"
  },
  {
    "name": "lille-press-hub-386",
    "city": "Lille",
    "country": "FR",
    "lat": 51.1648,
    "lng": 2.72,
    "relay": "https://box-hetzner-nuremberg.macula.io:4433",
    "site_type": "business"
  },
  {
    "name": "de-claes-387",
    "city": "Brussels",
    "country": "BE",
    "lat": 50.9766,
    "lng": 4.4474,
    "relay": "https://box-hetzner-nuremberg.macula.io:4433",
    "site_type": "family"
  },
  {
    "name": "the-hadzic-388",
    "city": "Sarajevo",
    "country": "BA",
    "lat": 43.5517,
    "lng": 18.4389,
    "relay": "https://box-hetzner-nuremberg.macula.io:4433",
    "site_type": "family"
  },
  {
    "name": "leeds-legal-pro-389",
    "city": "Leeds",
    "country": "GB",
    "lat": 55.0743,
    "lng": -0.6941,
    "relay": "https://box-hetzner-nuremberg.macula.io:4433",
    "site_type": "business"
  },
  {
    "name": "the-marin-390",
    "city": "Iasi",
    "country": "RO",
    "lat": 45.9336,
    "lng": 27.8835,
    "relay": "https://box-hetzner-helsinki.macula.io:4433",
    "site_type": "family"
  },
  {
    "name": "aarhus-audit-pro-391",
    "city": "Aarhus",
    "country": "DK",
    "lat": 57.4508,
    "lng": 9.4098,
    "relay": "https://box-hetzner-helsinki.macula.io:4433",
    "site_type": "business"
  },
  {
    "name": "familie-schmidt-392",
    "city": "Cologne",
    "country": "DE",
    "lat": 50.7469,
    "lng": 6.3751,
    "relay": "https://box-hetzner-nuremberg.macula.io:4433",
    "site_type": "family"
  },
  {
    "name": "the-hamalainen-393",
    "city": "Oulu",
    "country": "FI",
    "lat": 65.7243,
    "lng": 25.5928,
    "relay": "https://box-hetzner-helsinki.macula.io:4433",
    "site_type": "family"
  },
  {
    "name": "prague-arch-hub-394",
    "city": "Prague",
    "country": "CZ",
    "lat": 49.7425,
    "lng": 14.7202,
    "relay": "https://box-hetzner-helsinki.macula.io:4433",
    "site_type": "business"
  },
  {
    "name": "the-varga-395",
    "city": "Debrecen",
    "country": "HU",
    "lat": 47.6358,
    "lng": 22.1573,
    "relay": "https://box-hetzner-helsinki.macula.io:4433",
    "site_type": "family"
  },
  {
    "name": "oulu-construct-hub-396",
    "city": "Oulu",
    "country": "FI",
    "lat": 65.2184,
    "lng": 23.4553,
    "relay": "https://box-hetzner-helsinki.macula.io:4433",
    "site_type": "business"
  },
  {
    "name": "familie-becker-397",
    "city": "Munich",
    "country": "DE",
    "lat": 48.7873,
    "lng": 12.4557,
    "relay": "https://box-hetzner-nuremberg.macula.io:4433",
    "site_type": "family"
  },
  {
    "name": "the-eder-398",
    "city": "Graz",
    "country": "AT",
    "lat": 46.7849,
    "lng": 16.276,
    "relay": "https://box-hetzner-nuremberg.macula.io:4433",
    "site_type": "family"
  },
  {
    "name": "tartu-organic-pro-399",
    "city": "Tartu",
    "country": "EE",
    "lat": 59.6783,
    "lng": 26.3851,
    "relay": "https://box-hetzner-helsinki.macula.io:4433",
    "site_type": "business"
  },
  {
    "name": "casa-rossi-400",
    "city": "Bari",
    "country": "IT",
    "lat": 43.0575,
    "lng": 15.7724,
    "relay": "https://box-hetzner-nuremberg.macula.io:4433",
    "site_type": "family"
  },
  {
    "name": "luxembou-bakery-pro-401",
    "city": "Luxembourg",
    "country": "LU",
    "lat": 48.8357,
    "lng": 6.7596,
    "relay": "https://box-hetzner-nuremberg.macula.io:4433",
    "site_type": "business"
  },
  {
    "name": "casa-ferrari-402",
    "city": "Milan",
    "country": "IT",
    "lat": 46.248,
    "lng": 9.283,
    "relay": "https://box-hetzner-nuremberg.macula.io:4433",
    "site_type": "family"
  },
  {
    "name": "van-van-dijk-403",
    "city": "Utrecht",
    "country": "NL",
    "lat": 51.8297,
    "lng": 5.2859,
    "relay": "https://box-hetzner-nuremberg.macula.io:4433",
    "site_type": "family"
  },
  {
    "name": "tartu-clinic-hub-404",
    "city": "Tartu",
    "country": "EE",
    "lat": 57.7058,
    "lng": 27.5841,
    "relay": "https://box-hetzner-helsinki.macula.io:4433",
    "site_type": "business"
  },
  {
    "name": "the-novak-405",
    "city": "Ljubljana",
    "country": "SI",
    "lat": 46.3014,
    "lng": 14.7525,
    "relay": "https://box-hetzner-nuremberg.macula.io:4433",
    "site_type": "family"
  },
  {
    "name": "stuttgar-gym-hub-406",
    "city": "Stuttgart",
    "country": "DE",
    "lat": 48.1633,
    "lng": 10.2613,
    "relay": "https://box-hetzner-nuremberg.macula.io:4433",
    "site_type": "business"
  },
  {
    "name": "van-meijer-407",
    "city": "Utrecht",
    "country": "NL",
    "lat": 52.2561,
    "lng": 5.9739,
    "relay": "https://box-hetzner-nuremberg.macula.io:4433",
    "site_type": "family"
  },
  {
    "name": "the-radulovic-408",
    "city": "Podgorica",
    "country": "ME",
    "lat": 42.9036,
    "lng": 18.7286,
    "relay": "https://box-hetzner-nuremberg.macula.io:4433",
    "site_type": "family"
  },
  {
    "name": "kaunas-florist-pro-409",
    "city": "Kaunas",
    "country": "LT",
    "lat": 54.9864,
    "lng": 22.4677,
    "relay": "https://box-hetzner-helsinki.macula.io:4433",
    "site_type": "business"
  },
  {
    "name": "van-jansen-410",
    "city": "Groningen",
    "country": "NL",
    "lat": 52.8864,
    "lng": 7.1909,
    "relay": "https://box-hetzner-nuremberg.macula.io:4433",
    "site_type": "family"
  },
  {
    "name": "kropyvny-vet-pro-411",
    "city": "Kropyvnytskyi",
    "country": "UA",
    "lat": 48.7563,
    "lng": 31.1764,
    "relay": "https://box-hetzner-helsinki.macula.io:4433",
    "site_type": "business"
  },
  {
    "name": "the-bauer-412",
    "city": "Vienna",
    "country": "AT",
    "lat": 48.1387,
    "lng": 16.4739,
    "relay": "https://box-hetzner-nuremberg.macula.io:4433",
    "site_type": "family"
  },
  {
    "name": "the-trajkovski-413",
    "city": "Skopje",
    "country": "MK",
    "lat": 42.3319,
    "lng": 22.0475,
    "relay": "https://box-hetzner-nuremberg.macula.io:4433",
    "site_type": "family"
  },
  {
    "name": "chisinau-lab-hub-414",
    "city": "Chisinau",
    "country": "MD",
    "lat": 47.7015,
    "lng": 29.284,
    "relay": "https://box-hetzner-helsinki.macula.io:4433",
    "site_type": "business"
  },
  {
    "name": "the-stojanovski-415",
    "city": "Skopje",
    "country": "MK",
    "lat": 41.3787,
    "lng": 21.0876,
    "relay": "https://box-hetzner-nuremberg.macula.io:4433",
    "site_type": "family"
  },
  {
    "name": "ivano-fr-brewery-hub-416",
    "city": "Ivano-Frankivsk",
    "country": "UA",
    "lat": 48.1526,
    "lng": 24.7329,
    "relay": "https://box-hetzner-helsinki.macula.io:4433",
    "site_type": "business"
  },
  {
    "name": "the-marin-417",
    "city": "Constanta",
    "country": "RO",
    "lat": 43.943,
    "lng": 28.5633,
    "relay": "https://box-hetzner-helsinki.macula.io:4433",
    "site_type": "family"
  },
  {
    "name": "the-kovacic-418",
    "city": "Ljubljana",
    "country": "SI",
    "lat": 46.6305,
    "lng": 13.7374,
    "relay": "https://box-hetzner-nuremberg.macula.io:4433",
    "site_type": "family"
  },
  {
    "name": "belfast-workshop-pro-419",
    "city": "Belfast",
    "country": "GB",
    "lat": 54.8026,
    "lng": -7.7459,
    "relay": "https://box-hetzner-nuremberg.macula.io:4433",
    "site_type": "business"
  },
  {
    "name": "the-tymoshenko-420",
    "city": "Severodonetsk",
    "country": "UA",
    "lat": 52.3557,
    "lng": 39.1163,
    "relay": "https://box-hetzner-helsinki.macula.io:4433",
    "site_type": "family"
  },
  {
    "name": "helsinki-tech-pro-421",
    "city": "Helsinki",
    "country": "FI",
    "lat": 61.3442,
    "lng": 25.6157,
    "relay": "https://box-hetzner-helsinki.macula.io:4433",
    "site_type": "business"
  },
  {
    "name": "the-toth-422",
    "city": "Budapest",
    "country": "HU",
    "lat": 47.0567,
    "lng": 18.1281,
    "relay": "https://box-hetzner-helsinki.macula.io:4433",
    "site_type": "family"
  },
  {
    "name": "the-novak-423",
    "city": "Zagreb",
    "country": "HR",
    "lat": 44.0673,
    "lng": 15.513,
    "relay": "https://box-hetzner-nuremberg.macula.io:4433",
    "site_type": "family"
  },
  {
    "name": "turku-data-hub-424",
    "city": "Turku",
    "country": "FI",
    "lat": 63.0094,
    "lng": 21.3283,
    "relay": "https://box-hetzner-helsinki.macula.io:4433",
    "site_type": "business"
  },
  {
    "name": "familie-hoffmann-425",
    "city": "Munich",
    "country": "DE",
    "lat": 48.2797,
    "lng": 11.3243,
    "relay": "https://box-hetzner-nuremberg.macula.io:4433",
    "site_type": "family"
  },
  {
    "name": "salzburg-web-hub-426",
    "city": "Salzburg",
    "country": "AT",
    "lat": 47.6215,
    "lng": 12.4715,
    "relay": "https://box-hetzner-nuremberg.macula.io:4433",
    "site_type": "business"
  },
  {
    "name": "the-persson-427",
    "city": "Malmo",
    "country": "SE",
    "lat": 55.7673,
    "lng": 13.9716,
    "relay": "https://box-hetzner-helsinki.macula.io:4433",
    "site_type": "family"
  },
  {
    "name": "the-berzins-428",
    "city": "Daugavpils",
    "country": "LV",
    "lat": 56.0215,
    "lng": 25.4352,
    "relay": "https://box-hetzner-helsinki.macula.io:4433",
    "site_type": "family"
  },
  {
    "name": "thessalo-wind-pro-429",
    "city": "Thessaloniki",
    "country": "GR",
    "lat": 41.4516,
    "lng": 22.3248,
    "relay": "https://box-hetzner-helsinki.macula.io:4433",
    "site_type": "business"
  },
  {
    "name": "familie-fischer-430",
    "city": "Nuremberg",
    "country": "DE",
    "lat": 49.3154,
    "lng": 11.9686,
    "relay": "https://box-hetzner-nuremberg.macula.io:4433",
    "site_type": "family"
  },
  {
    "name": "iasi-eco-pro-431",
    "city": "Iasi",
    "country": "RO",
    "lat": 48.3184,
    "lng": 27.5479,
    "relay": "https://box-hetzner-helsinki.macula.io:4433",
    "site_type": "business"
  },
  {
    "name": "the-gheorghe-432",
    "city": "Iasi",
    "country": "RO",
    "lat": 47.9462,
    "lng": 27.0816,
    "relay": "https://box-hetzner-helsinki.macula.io:4433",
    "site_type": "family"
  },
  {
    "name": "the-maric-433",
    "city": "Zagreb",
    "country": "HR",
    "lat": 46.794,
    "lng": 16.7195,
    "relay": "https://box-hetzner-nuremberg.macula.io:4433",
    "site_type": "family"
  },
  {
    "name": "tallinn-logistics-hub-434",
    "city": "Tallinn",
    "country": "EE",
    "lat": 58.3773,
    "lng": 24.792,
    "relay": "https://box-hetzner-helsinki.macula.io:4433",
    "site_type": "business"
  },
  {
    "name": "the-byrne-435",
    "city": "Cork",
    "country": "IE",
    "lat": 52.2243,
    "lng": -8.0487,
    "relay": "https://box-hetzner-nuremberg.macula.io:4433",
    "site_type": "family"
  },
  {
    "name": "ljubljan-express-hub-436",
    "city": "Ljubljana",
    "country": "SI",
    "lat": 46.4259,
    "lng": 13.9969,
    "relay": "https://box-hetzner-nuremberg.macula.io:4433",
    "site_type": "business"
  },
  {
    "name": "the-andersson-437",
    "city": "Malmo",
    "country": "SE",
    "lat": 56.1329,
    "lng": 14.1572,
    "relay": "https://box-hetzner-helsinki.macula.io:4433",
    "site_type": "family"
  },
  {
    "name": "van-de-vries-438",
    "city": "Den Haag",
    "country": "NL",
    "lat": 53.1106,
    "lng": 3.8371,
    "relay": "https://box-hetzner-nuremberg.macula.io:4433",
    "site_type": "family"
  },
  {
    "name": "odessa-press-pro-439",
    "city": "Odessa",
    "country": "UA",
    "lat": 47.5572,
    "lng": 30.8291,
    "relay": "https://box-hetzner-helsinki.macula.io:4433",
    "site_type": "business"
  },
  {
    "name": "the-cerny-440",
    "city": "Prague",
    "country": "CZ",
    "lat": 50.0137,
    "lng": 14.8003,
    "relay": "https://box-hetzner-helsinki.macula.io:4433",
    "site_type": "family"
  },
  {
    "name": "skopje-print-pro-441",
    "city": "Skopje",
    "country": "MK",
    "lat": 42.1718,
    "lng": 21.6802,
    "relay": "https://box-hetzner-nuremberg.macula.io:4433",
    "site_type": "business"
  },
  {
    "name": "the-laine-442",
    "city": "Turku",
    "country": "FI",
    "lat": 63.2525,
    "lng": 21.3537,
    "relay": "https://box-hetzner-helsinki.macula.io:4433",
    "site_type": "family"
  },
  {
    "name": "the-kovacic-443",
    "city": "Ljubljana",
    "country": "SI",
    "lat": 46.0531,
    "lng": 13.913,
    "relay": "https://box-hetzner-nuremberg.macula.io:4433",
    "site_type": "family"
  },
  {
    "name": "milan-audit-hub-444",
    "city": "Milan",
    "country": "IT",
    "lat": 46.3525,
    "lng": 9.8923,
    "relay": "https://box-hetzner-nuremberg.macula.io:4433",
    "site_type": "business"
  },
  {
    "name": "the-mets-445",
    "city": "Tartu",
    "country": "EE",
    "lat": 58.5323,
    "lng": 25.7898,
    "relay": "https://box-hetzner-helsinki.macula.io:4433",
    "site_type": "family"
  },
  {
    "name": "chisinau-design-hub-446",
    "city": "Chisinau",
    "country": "MD",
    "lat": 45.8105,
    "lng": 28.3739,
    "relay": "https://box-hetzner-helsinki.macula.io:4433",
    "site_type": "business"
  },
  {
    "name": "the-hoffmann-447",
    "city": "Luxembourg",
    "country": "LU",
    "lat": 50.1307,
    "lng": 6.2588,
    "relay": "https://box-hetzner-nuremberg.macula.io:4433",
    "site_type": "family"
  },
  {
    "name": "the-nagy-448",
    "city": "Bratislava",
    "country": "SK",
    "lat": 48.3729,
    "lng": 17.4681,
    "relay": "https://box-hetzner-helsinki.macula.io:4433",
    "site_type": "family"
  },
  {
    "name": "dublin-construct-pro-449",
    "city": "Dublin",
    "country": "IE",
    "lat": 52.8134,
    "lng": -6.1402,
    "relay": "https://box-hetzner-nuremberg.macula.io:4433",
    "site_type": "business"
  },
  {
    "name": "the-nagy-450",
    "city": "Budapest",
    "country": "HU",
    "lat": 47.8602,
    "lng": 19.4797,
    "relay": "https://box-hetzner-helsinki.macula.io:4433",
    "site_type": "family"
  },
  {
    "name": "leipzig-fresh-pro-451",
    "city": "Leipzig",
    "country": "DE",
    "lat": 50.7547,
    "lng": 12.9357,
    "relay": "https://box-hetzner-nuremberg.macula.io:4433",
    "site_type": "business"
  },
  {
    "name": "the-horvath-452",
    "city": "Kosice",
    "country": "SK",
    "lat": 48.2281,
    "lng": 21.5036,
    "relay": "https://box-hetzner-helsinki.macula.io:4433",
    "site_type": "family"
  },
  {
    "name": "the-horak-453",
    "city": "Prague",
    "country": "CZ",
    "lat": 50.3346,
    "lng": 14.561,
    "relay": "https://box-hetzner-helsinki.macula.io:4433",
    "site_type": "family"
  },
  {
    "name": "gdansk-bakery-hub-454",
    "city": "Gdansk",
    "country": "PL",
    "lat": 54.5857,
    "lng": 18.7657,
    "relay": "https://box-hetzner-helsinki.macula.io:4433",
    "site_type": "business"
  },
  {
    "name": "the-vujovic-455",
    "city": "Podgorica",
    "country": "ME",
    "lat": 42.646,
    "lng": 19.2133,
    "relay": "https://box-hetzner-nuremberg.macula.io:4433",
    "site_type": "family"
  },
  {
    "name": "podgoric-pharmacy-hub-456",
    "city": "Podgorica",
    "country": "ME",
    "lat": 42.2267,
    "lng": 18.9871,
    "relay": "https://box-hetzner-nuremberg.macula.io:4433",
    "site_type": "business"
  },
  {
    "name": "the-schmit-457",
    "city": "Luxembourg",
    "country": "LU",
    "lat": 49.6406,
    "lng": 6.3139,
    "relay": "https://box-hetzner-nuremberg.macula.io:4433",
    "site_type": "family"
  },
  {
    "name": "the-weber-458",
    "city": "Bern",
    "country": "CH",
    "lat": 47.6079,
    "lng": 7.4647,
    "relay": "https://box-hetzner-nuremberg.macula.io:4433",
    "site_type": "family"
  },
  {
    "name": "odessa-gym-pro-459",
    "city": "Odessa",
    "country": "UA",
    "lat": 46.6311,
    "lng": 29.9253,
    "relay": "https://box-hetzner-helsinki.macula.io:4433",
    "site_type": "business"
  },
  {
    "name": "van-smit-460",
    "city": "Groningen",
    "country": "NL",
    "lat": 52.3776,
    "lng": 6.9974,
    "relay": "https://box-hetzner-nuremberg.macula.io:4433",
    "site_type": "family"
  },
  {
    "name": "belgrade-garage-pro-461",
    "city": "Belgrade",
    "country": "RS",
    "lat": 44.7276,
    "lng": 19.3164,
    "relay": "https://box-hetzner-nuremberg.macula.io:4433",
    "site_type": "business"
  },
  {
    "name": "the-horak-462",
    "city": "Brno",
    "country": "CZ",
    "lat": 48.7277,
    "lng": 16.5442,
    "relay": "https://box-hetzner-helsinki.macula.io:4433",
    "site_type": "family"
  },
  {
    "name": "the-stankevic-463",
    "city": "Vilnius",
    "country": "LT",
    "lat": 53.9637,
    "lng": 26.4461,
    "relay": "https://box-hetzner-helsinki.macula.io:4433",
    "site_type": "family"
  },
  {
    "name": "porto-vet-hub-464",
    "city": "Porto",
    "country": "PT",
    "lat": 40.921,
    "lng": -7.4549,
    "relay": "https://box-hetzner-nuremberg.macula.io:4433",
    "site_type": "business"
  },
  {
    "name": "van-de-vries-465",
    "city": "Groningen",
    "country": "NL",
    "lat": 52.9765,
    "lng": 6.6456,
    "relay": "https://box-hetzner-nuremberg.macula.io:4433",
    "site_type": "family"
  },
  {
    "name": "hamburg-salon-hub-466",
    "city": "Hamburg",
    "country": "DE",
    "lat": 51.7331,
    "lng": 9.7349,
    "relay": "https://box-hetzner-nuremberg.macula.io:4433",
    "site_type": "business"
  },
  {
    "name": "the-pukk-467",
    "city": "Tartu",
    "country": "EE",
    "lat": 57.9695,
    "lng": 27.8796,
    "relay": "https://box-hetzner-helsinki.macula.io:4433",
    "site_type": "family"
  },
  {
    "name": "the-nowak-468",
    "city": "Krakow",
    "country": "PL",
    "lat": 49.1892,
    "lng": 20.1158,
    "relay": "https://box-hetzner-helsinki.macula.io:4433",
    "site_type": "family"
  },