[
  {
    "name": "the-smith-0",
    "city": "London",
    "country": "GB",
    "lat": 51.4124,
    "lng": -0.1798,
    "relay": "https://box-hetzner-nuremberg.macula.io:4433",
    "site_type": "family"
  },
  {
    "name": "edinburg-cyber-pro-1",
    "city": "Edinburgh",
    "country": "GB",
    "lat": 55.9433,
    "lng": -3.1483,
    "relay": "https://box-hetzner-nuremberg.macula.io:4433",
    "site_type": "business"
  },
  {
    "name": "the-williams-2",
    "city": "Manchester",
    "country": "GB",
    "lat": 53.5558,
    "lng": -2.1106,
    "relay": "https://box-hetzner-nuremberg.macula.io:4433",
    "site_type": "family"
  },
  {
    "name": "the-brown-3",
    "city": "Birmingham",
    "country": "GB",
    "lat": 52.6462,
    "lng": -2.0664,
    "relay": "https://box-hetzner-nuremberg.macula.io:4433",
    "site_type": "family"
  },
  {
    "name": "glasgow-solar-hub-4",
    "city": "Glasgow",
    "country": "GB",
    "lat": 56.1092,
    "lng": -4.3358,
    "relay": "https://box-hetzner-nuremberg.macula.io:4433",
    "site_type": "business"
  },
  {
    "name": "the-wilson-5",
    "city": "Leeds",
    "country": "GB",
    "lat": 53.6308,
    "lng": -1.5411,
    "relay": "https://box-hetzner-nuremberg.macula.io:4433",
    "site_type": "family"
  },
  {
    "name": "bristol-bio-hub-6",
    "city": "Bristol",
    "country": "GB",
    "lat": 51.3695,
    "lng": -2.4879,
    "relay": "https://box-hetzner-nuremberg.macula.io:4433",
    "site_type": "business"
  },
  {
    "name": "the-evans-7",
    "city": "Cardiff",
    "country": "GB",
    "lat": 51.4816,
    "lng": -2.9871,
    "relay": "https://box-hetzner-nuremberg.macula.io:4433",
    "site_type": "family"
  },
  {
    "name": "the-thomas-8",
    "city": "Belfast",
    "country": "GB",
    "lat": 54.6823,
    "lng": -6.0461,
    "relay": "https://box-hetzner-nuremberg.macula.io:4433",
    "site_type": "family"
  },
  {
    "name": "dublin-smart-pro-9",
    "city": "Dublin",
    "country": "IE",
    "lat": 53.5198,
    "lng": -6.2843,
    "relay": "https://box-hetzner-nuremberg.macula.io:4433",
    "site_type": "business"
  },
  {
    "name": "the-murphy-10",
    "city": "Cork",
    "country": "IE",
    "lat": 51.6535,
    "lng": -8.4076,
    "relay": "https://box-hetzner-nuremberg.macula.io:4433",
    "site_type": "family"
  },
  {
    "name": "paris-transport-pro-11",
    "city": "Paris",
    "country": "FR",
    "lat": 48.6966,
    "lng": 2.5122,
    "relay": "https://box-hetzner-nuremberg.macula.io:4433",
    "site_type": "business"
  },
  {
    "name": "famille-fontaine-12",
    "city": "Lyon",
    "country": "FR",
    "lat": 45.689,
    "lng": 4.6877,
    "relay": "https://box-hetzner-nuremberg.macula.io:4433",
    "site_type": "family"
  },
  {
    "name": "famille-martin-13",
    "city": "Marseille",
    "country": "FR",
    "lat": 43.3065,
    "lng": 5.3138,
    "relay": "https://box-hetzner-nuremberg.macula.io:4433",
    "site_type": "family"
  },
  {
    "name": "toulouse-media-hub-14",
    "city": "Toulouse",
    "country": "FR",
    "lat": 43.6997,
    "lng": 1.4802,
    "relay": "https://box-hetzner-nuremberg.macula.io:4433",
    "site_type": "business"
  },
  {
    "name": "famille-dubois-15",
    "city": "Nice",
    "country": "FR",
    "lat": 43.8902,
    "lng": 7.39,
    "relay": "https://box-hetzner-nuremberg.macula.io:4433",
    "site_type": "family"
  },
  {
    "name": "nantes-radio-hub-16",
    "city": "Nantes",
    "country": "FR",
    "lat": 46.9834,
    "lng": -1.7336,
    "relay": "https://box-hetzner-nuremberg.macula.io:4433",
    "site_type": "business"
  },
  {
    "name": "famille-moreau-17",
    "city": "Strasbourg",
    "country": "FR",
    "lat": 48.4234,
    "lng": 7.6641,
    "relay": "https://box-hetzner-nuremberg.macula.io:4433",
    "site_type": "family"
  },
  {
    "name": "famille-laurent-18",
    "city": "Bordeaux",
    "country": "FR",
    "lat": 44.7728,
    "lng": -0.5752,
    "relay": "https://box-hetzner-nuremberg.macula.io:4433",
    "site_type": "family"
  },
  {
    "name": "lille-consult-pro-19",
    "city": "Lille",
    "country": "FR",
    "lat": 50.6492,
    "lng": 3.1533,
    "relay": "https://box-hetzner-nuremberg.macula.io:4433",
    "site_type": "business"
  },
  {
    "name": "de-wouters-20",
    "city": "Brussels",
    "country": "BE",
    "lat": 50.9553,
    "lng": 4.5397,
    "relay": "https://box-hetzner-nuremberg.macula.io:4433",
    "site_type": "family"
  },
  {
    "name": "antwerp-tax-pro-21",
    "city": "Antwerp",
    "country": "BE",
    "lat": 51.4094,
    "lng": 4.2825,
    "relay": "https://box-hetzner-nuremberg.macula.io:4433",
    "site_type": "business"
  },
  {
    "name": "de-peeters-22",
    "city": "Ghent",
    "country": "BE",
    "lat": 50.8293,
    "lng": 3.6894,
    "relay": "https://box-hetzner-nuremberg.macula.io:4433",
    "site_type": "family"
  },
  {
    "name": "de-janssen-23",
    "city": "Liege",
    "country": "BE",
    "lat": 50.4892,
    "lng": 5.6437,
    "relay": "https://box-hetzner-nuremberg.macula.io:4433",
    "site_type": "family"
  },
  {
    "name": "charlero-build-hub-24",
    "city": "Charleroi",
    "country": "BE",
    "lat": 50.3558,
    "lng": 4.6006,
    "relay": "https://box-hetzner-nuremberg.macula.io:4433",
    "site_type": "business"
  },
  {
    "name": "van-van-dijk-25",
    "city": "Amsterdam",
    "country": "NL",
    "lat": 52.3976,
    "lng": 4.7521,
    "relay": "https://box-hetzner-nuremberg.macula.io:4433",
    "site_type": "family"
  },
  {
    "name": "rotterda-food-hub-26",
    "city": "Rotterdam",
    "country": "NL",
    "lat": 52.0394,
    "lng": 4.4177,
    "relay": "https://box-hetzner-nuremberg.macula.io:4433",
    "site_type": "business"
  },
  {
    "name": "van-visser-27",
    "city": "Utrecht",
    "country": "NL",
    "lat": 52.2907,
    "lng": 5.1534,
    "relay": "https://box-hetzner-nuremberg.macula.io:4433",
    "site_type": "family"
  },
  {
    "name": "van-smit-28",
    "city": "Eindhoven",
    "country": "NL",
    "lat": 51.2266,
    "lng": 5.5937,
    "relay": "https://box-hetzner-nuremberg.macula.io:4433",
    "site_type": "family"
  },
  {
    "name": "groninge-market-pro-29",
    "city": "Groningen",
    "country": "NL",
    "lat": 53.0894,
    "lng": 6.3825,
    "relay": "https://box-hetzner-nuremberg.macula.io:4433",
    "site_type": "business"
  },
  {
    "name": "van-mulder-30",
    "city": "Den Haag",
    "country": "NL",
    "lat": 52.0255,
    "lng": 4.2087,
    "relay": "https://box-hetzner-nuremberg.macula.io:4433",
    "site_type": "family"
  },
  {
    "name": "luxembou-cafe-pro-31",
    "city": "Luxembourg",
    "country": "LU",
    "lat": 49.6517,
    "lng": 6.13,
    "relay": "https://box-hetzner-nuremberg.macula.io:4433",
    "site_type": "business"
  },
  {
    "name": "familie-schmidt-32",
    "city": "Berlin",
    "country": "DE",
    "lat": 52.645,
    "lng": 13.497,
    "relay": "https://box-hetzner-nuremberg.macula.io:4433",
    "site_type": "family"
  },
  {
    "name": "familie-schneider-33",
    "city": "Munich",
    "country": "DE",
    "lat": 48.3451,
    "lng": 11.766,
    "relay": "https://box-hetzner-nuremberg.macula.io:4433",
    "site_type": "family"
  },
  {
    "name": "hamburg-school-hub-34",
    "city": "Hamburg",
    "country": "DE",
    "lat": 53.3461,
    "lng": 9.8697,
    "relay": "https://box-hetzner-nuremberg.macula.io:4433",
    "site_type": "business"
  },
  {
    "name": "familie-weber-35",
    "city": "Frankfurt",
    "country": "DE",
    "lat": 49.9909,
    "lng": 8.6501,
    "relay": "https://box-hetzner-nuremberg.macula.io:4433",
    "site_type": "family"
  },
  {
    "name": "cologne-hotel-hub-36",
    "city": "Cologne",
    "country": "DE",
    "lat": 50.9025,
    "lng": 7.0203,
    "relay": "https://box-hetzner-nuremberg.macula.io:4433",
    "site_type": "business"
  },
  {
    "name": "familie-becker-37",
    "city": "Stuttgart",
    "country": "DE",
    "lat": 48.8258,
    "lng": 9.3349,
    "relay": "https://box-hetzner-nuremberg.macula.io:4433",
    "site_type": "family"
  },
  {
    "name": "familie-hoffmann-38",
    "city": "Dusseldorf",
    "country": "DE",
    "lat": 51.3627,
    "lng": 6.6175,
    "relay": "https://box-hetzner-nuremberg.macula.io:4433",
    "site_type": "family"
  },
  {
    "name": "leipzig-dentist-pro-39",
    "city": "Leipzig",
    "country": "DE",
    "lat": 51.5597,
    "lng": 12.3091,
    "relay": "https://box-hetzner-nuremberg.macula.io:4433",
    "site_type": "business"
  },
  {
    "name": "familie-mueller-40",
    "city": "Dresden",
    "country": "DE",
    "lat": 50.8554,
    "lng": 13.7653,
    "relay": "https://box-hetzner-nuremberg.macula.io:4433",
    "site_type": "family"
  },
  {
    "name": "nurember-studio-pro-41",
    "city": "Nuremberg",
    "country": "DE",
    "lat": 49.3421,
    "lng": 11.1967,
    "relay": "https://box-hetzner-nuremberg.macula.io:4433",
    "site_type": "business"
  },
  {
    "name": "the-schmid-42",
    "city": "Zurich",
    "country": "CH",
    "lat": 47.3519,
    "lng": 8.3537,
    "relay": "https://box-hetzner-nuremberg.macula.io:4433",
    "site_type": "family"
  },
  {
    "name": "the-keller-43",
    "city": "Geneva",
    "country": "CH",
    "lat": 46.2644,
    "lng": 6.0472,
    "relay": "https://box-hetzner-nuremberg.macula.io:4433",
    "site_type": "family"
  },
  {
    "name": "bern-farm-hub-44",
    "city": "Bern",
    "country": "CH",
    "lat": 47.093,
    "lng": 7.4434,
    "relay": "https://box-hetzner-nuremberg.macula.io:4433",
    "site_type": "business"
  },
  {
    "name": "the-berger-45",
    "city": "Vienna",
    "country": "AT",
    "lat": 48.4382,
    "lng": 16.4618,
    "relay": "https://box-hetzner-nuremberg.macula.io:4433",
    "site_type": "family"
  },
  {
    "name": "graz-winery-hub-46",
    "city": "Graz",
    "country": "AT",
    "lat": 46.8857,
    "lng": 15.6195,
    "relay": "https://box-hetzner-nuremberg.macula.io:4433",
    "site_type": "business"
  },
  {
    "name": "the-moser-47",
    "city": "Salzburg",
    "country": "AT",
    "lat": 47.7095,
    "lng": 12.927,
    "relay": "https://box-hetzner-nuremberg.macula.io:4433",
    "site_type": "family"
  },
  {
    "name": "casa-gomez-48",
    "city": "Madrid",
    "country": "ES",
    "lat": 40.4018,
    "lng": -3.7398,
    "relay": "https://box-hetzner-nuremberg.macula.io:4433",
    "site_type": "family"
  },
  {
    "name": "barcelon-forge-pro-49",
    "city": "Barcelona",
    "country": "ES",
    "lat": 41.4551,
    "lng": 2.2294,
    "relay": "https://box-hetzner-nuremberg.macula.io:4433",
    "site_type": "business"
  },
  {
    "name": "casa-martinez-50",
    "city": "Valencia",
    "country": "ES",
    "lat": 39.6249,
    "lng": -0.2283,
    "relay": "https://box-hetzner-nuremberg.macula.io:4433",
    "site_type": "family"
  },
  {
    "name": "seville-digital-pro-51",
    "city": "Seville",
    "country": "ES",
    "lat": 37.6291,
    "lng": -6.1445,
    "relay": "https://box-hetzner-nuremberg.macula.io:4433",
    "site_type": "business"
  },
  {
    "name": "casa-gonzalez-52",
    "city": "Bilbao",
    "country": "ES",
    "lat": 43.088,
    "lng": -3.003,
    "relay": "https://box-hetzner-nuremberg.macula.io:4433",
    "site_type": "family"
  },
  {
    "name": "casa-rodriguez-53",
    "city": "Malaga",
    "country": "ES",
    "lat": 36.6313,
    "lng": -4.3974,
    "relay": "https://box-hetzner-nuremberg.macula.io:4433",
    "site_type": "family"
  },
  {
    "name": "lisbon-cyber-hub-54",
    "city": "Lisbon",
    "country": "PT",
    "lat": 38.7173,
    "lng": -9.0233,
    "relay": "https://box-hetzner-nuremberg.macula.io:4433",
    "site_type": "business"
  },
  {
    "name": "casa-martins-55",
    "city": "Porto",
    "country": "PT",
    "lat": 41.2379,
    "lng": -8.8211,
    "relay": "https://box-hetzner-nuremberg.macula.io:4433",
    "site_type": "family"
  },
  {
    "name": "rome-app-hub-56",
    "city": "Rome",
    "country": "IT",
    "lat": 42.0678,
    "lng": 12.3964,
    "relay": "https://box-hetzner-nuremberg.macula.io:4433",
    "site_type": "business"
  },
  {
    "name": "casa-ricci-57",
    "city": "Milan",
    "country": "IT",
    "lat": 45.2142,
    "lng": 9.182,
    "relay": "https://box-hetzner-nuremberg.macula.io:4433",
    "site_type": "family"
  },
  {
    "name": "casa-marino-58",
    "city": "Naples",
    "country": "IT",
    "lat": 40.6868,
    "lng": 14.3521,
    "relay": "https://box-hetzner-nuremberg.macula.io:4433",
    "site_type": "family"
  },
  {
    "name": "turin-bio-pro-59",
    "city": "Turin",
    "country": "IT",
    "lat": 44.9903,
    "lng": 7.8629,
    "relay": "https://box-hetzner-nuremberg.macula.io:4433",
    "site_type": "business"
  },
  {
    "name": "casa-rossi-60",
    "city": "Florence",
    "country": "IT",
    "lat": 43.7746,
    "lng": 11.1238,
    "relay": "https://box-hetzner-nuremberg.macula.io:4433",
    "site_type": "family"
  },
  {
    "name": "venice-green-pro-61",
    "city": "Venice",
    "country": "IT",
    "lat": 45.5308,
    "lng": 12.2755,
    "relay": "https://box-hetzner-nuremberg.macula.io:4433",
    "site_type": "business"
  },
  {
    "name": "casa-ferrari-62",
    "city": "Palermo",
    "country": "IT",
    "lat": 38.2907,
    "lng": 13.4135,
    "relay": "https://box-hetzner-nuremberg.macula.io:4433",
    "site_type": "family"
  },
  {
    "name": "the-novak-63",
    "city": "Zagreb",
    "country": "HR",
    "lat": 45.575,
    "lng": 16.1259,
    "relay": "https://box-hetzner-nuremberg.macula.io:4433",
    "site_type": "family"
  },
  {
    "name": "ljubljan-transport-hub-64",
    "city": "Ljubljana",
    "country": "SI",
    "lat": 45.9019,
    "lng": 14.3418,
    "relay": "https://box-hetzner-nuremberg.macula.io:4433",
    "site_type": "business"
  },
  {
    "name": "the-jovanovic-65",
    "city": "Belgrade",
    "country": "RS",
    "lat": 44.7166,
    "lng": 20.3769,
    "relay": "https://box-hetzner-nuremberg.macula.io:4433",
    "site_type": "family"
  },
  {
    "name": "sarajevo-freight-hub-66",
    "city": "Sarajevo",
    "country": "BA",
    "lat": 43.8713,
    "lng": 18.4331,
    "relay": "https://box-hetzner-nuremberg.macula.io:4433",
    "site_type": "business"
  },
  {
    "name": "the-popovic-67",
    "city": "Podgorica",
    "country": "ME",
    "lat": 42.5304,
    "lng": 19.3714,
    "relay": "https://box-hetzner-nuremberg.macula.io:4433",
    "site_type": "family"
  },
  {
    "name": "the-shehu-68",
    "city": "Tirana",
    "country": "AL",
    "lat": 41.5125,
    "lng": 19.6227,
    "relay": "https://box-hetzner-nuremberg.macula.io:4433",
    "site_type": "family"
  },
  {
    "name": "skopje-radio-pro-69",
    "city": "Skopje",
    "country": "MK",
    "lat": 41.7673,
    "lng": 21.324,
    "relay": "https://box-hetzner-nuremberg.macula.io:4433",
    "site_type": "business"
  },
  {
    "name": "the-borg-70",
    "city": "Valletta",
    "country": "MT",
    "lat": 35.7539,
    "lng": 14.5026,
    "relay": "https://box-hetzner-nuremberg.macula.io:4433",
    "site_type": "family"
  },
  {
    "name": "nicosia-legal-pro-71",
    "city": "Nicosia",
    "country": "CY",
    "lat": 35.1256,
    "lng": 33.4623,
    "relay": "https://box-hetzner-nuremberg.macula.io:4433",
    "site_type": "business"
  },
  {
    "name": "the-gudmundsson-72",
    "city": "Reykjavik",
    "country": "IS",
    "lat": 64.1716,
    "lng": -21.7706,
    "relay": "https://box-hetzner-nuremberg.macula.io:4433",
    "site_type": "family"
  },
  {
    "name": "casa-esposito-73",
    "city": "Bari",
    "country": "IT",
    "lat": 41.2271,
    "lng": 16.7359,
    "relay": "https://box-hetzner-nuremberg.macula.io:4433",
    "site_type": "family"
  },
  {
    "name": "athens-tax-hub-74",
    "city": "Athens",
    "country": "GR",
    "lat": 38.1788,
    "lng": 23.6835,
    "relay": "https://box-hetzner-nuremberg.macula.io:4433",
    "site_type": "business"
  },
  {
    "name": "the-heikkinen-75",
    "city": "Helsinki",
    "country": "FI",
    "lat": 59.9499,
    "lng": 24.9864,
    "relay": "https://box-hetzner-helsinki.macula.io:4433",
    "site_type": "family"
  },
  {
    "name": "tampere-arch-hub-76",
    "city": "Tampere",
    "country": "FI",
    "lat": 61.3628,
    "lng": 23.901,
    "relay": "https://box-hetzner-helsinki.macula.io:4433",
    "site_type": "business"
  },
  {
    "name": "the-virtanen-77",
    "city": "Turku",
    "country": "FI",
    "lat": 60.4018,
    "lng": 22.0986,
    "relay": "https://box-hetzner-helsinki.macula.io:4433",
    "site_type": "family"
  },
  {
    "name": "the-makinen-78",
    "city": "Oulu",
    "country": "FI",
    "lat": 65.0471,
    "lng": 25.3891,
    "relay": "https://box-hetzner-helsinki.macula.io:4433",
    "site_type": "family"
  },
  {
    "name": "stockhol-food-pro-79",
    "city": "Stockholm",
    "country": "SE",
    "lat": 59.4493,
    "lng": 18.0846,
    "relay": "https://box-hetzner-helsinki.macula.io:4433",
    "site_type": "business"
  },
  {
    "name": "the-eriksson-80",
    "city": "Gothenburg",
    "country": "SE",
    "lat": 57.9139,
    "lng": 12.0826,
    "relay": "https://box-hetzner-helsinki.macula.io:4433",
    "site_type": "family"
  },
  {
    "name": "malmo-organic-pro-81",
    "city": "Malmo",
    "country": "SE",
    "lat": 55.395,
    "lng": 12.8038,
    "relay": "https://box-hetzner-helsinki.macula.io:4433",
    "site_type": "business"
  },
  {
    "name": "the-olsson-82",
    "city": "Uppsala",
    "country": "SE",
    "lat": 59.7336,
    "lng": 17.5309,
    "relay": "https://box-hetzner-helsinki.macula.io:4433",
    "site_type": "family"
  },
  {
    "name": "the-kristiansen-83",
    "city": "Oslo",
    "country": "NO",
    "lat": 59.8739,
    "lng": 10.7362,
    "relay": "https://box-hetzner-helsinki.macula.io:4433",
    "site_type": "family"
  },
  {
    "name": "bergen-cafe-hub-84",
    "city": "Bergen",
    "country": "NO",
    "lat": 60.4363,
    "lng": 5.3981,
    "relay": "https://box-hetzner-helsinki.macula.io:4433",
    "site_type": "business"
  },
  {
    "name": "the-johansen-85",
    "city": "Trondheim",
    "country": "NO",
    "lat": 63.5605,
    "lng": 10.5631,
    "relay": "https://box-hetzner-helsinki.macula.io:4433",
    "site_type": "family"
  },
  {
    "name": "copenhag-clinic-hub-86",
    "city": "Copenhagen",
    "country": "DK",
    "lat": 55.8911,
    "lng": 12.4283,
    "relay": "https://box-hetzner-helsinki.macula.io:4433",
    "site_type": "business"
  },
  {
    "name": "the-pedersen-87",
    "city": "Aarhus",
    "country": "DK",
    "lat": 55.9629,
    "lng": 10.1559,
    "relay": "https://box-hetzner-helsinki.macula.io:4433",
    "site_type": "family"
  },
  {
    "name": "the-koppel-88",
    "city": "Tallinn",
    "country": "EE",
    "lat": 59.322,
    "lng": 24.7976,
    "relay": "https://box-hetzner-helsinki.macula.io:4433",
    "site_type": "family"
  },
  {
    "name": "tartu-hotel-pro-89",
    "city": "Tartu",
    "country": "EE",
    "lat": 58.348,
    "lng": 26.865,
    "relay": "https://box-hetzner-helsinki.macula.io:4433",
    "site_type": "business"
  },
  {
    "name": "the-krumins-90",
    "city": "Riga",
    "country": "LV",
    "lat": 57.0046,
    "lng": 23.9332,
    "relay": "https://box-hetzner-helsinki.macula.io:4433",
    "site_type": "family"
  },
  {
    "name": "daugavpi-florist-pro-91",
    "city": "Daugavpils",
    "country": "LV",
    "lat": 56.0149,
    "lng": 26.4556,
    "relay": "https://box-hetzner-helsinki.macula.io:4433",
    "site_type": "business"
  },
  {
    "name": "the-butkus-92",
    "city": "Vilnius",
    "country": "LT",
    "lat": 54.9122,
    "lng": 25.2917,
    "relay": "https://box-hetzner-helsinki.macula.io:4433",
    "site_type": "family"
  },
  {
    "name": "the-paulauskas-93",
    "city": "Kaunas",
    "country": "LT",
    "lat": 54.7085,
    "lng": 24.0076,
    "relay": "https://box-hetzner-helsinki.macula.io:4433",
    "site_type": "family"
  },
  {
    "name": "klaipeda-studio-hub-94",
    "city": "Klaipeda",
    "country": "LT",
    "lat": 55.5983,
    "lng": 21.3403,
    "relay": "https://box-hetzner-helsinki.macula.io:4433",
    "site_type": "business"
  },
  {
    "name": "the-wojcik-95",
    "city": "Warsaw",
    "country": "PL",
    "lat": 52.2097,
    "lng": 20.9002,
    "relay": "https://box-hetzner-helsinki.macula.io:4433",
    "site_type": "family"
  },
  {
    "name": "krakow-lab-hub-96",
    "city": "Krakow",
    "country": "PL",
    "lat": 50.1297,
    "lng": 19.925,
    "relay": "https://box-hetzner-helsinki.macula.io:4433",
    "site_type": "business"
  },
  {
    "name": "the-lewandowski-97",
    "city": "Gdansk",
    "country": "PL",
    "lat": 54.502,
    "lng": 18.7186,
    "relay": "https://box-hetzner-helsinki.macula.io:4433",
    "site_type": "family"
  },
  {
    "name": "the-zielinski-98",
    "city": "Wroclaw",
    "country": "PL",
    "lat": 51.3429,
    "lng": 17.2025,
    "relay": "https://box-hetzner-helsinki.macula.io:4433",
    "site_type": "family"
  },
  {
    "name": "poznan-winery-pro-99",
    "city": "Poznan",
    "country": "PL",
    "lat": 52.2264,
    "lng": 16.7812,
    "relay": "https://box-hetzner-helsinki.macula.io:4433",
    "site_type": "business"
  },
  {
    "name": "the-nowak-100",
    "city": "Lodz",
    "country": "PL",
    "lat": 51.6642,
    "lng": 19.404,
    "relay": "https://box-hetzner-helsinki.macula.io:4433",
    "site_type": "family"
  },
  {
    "name": "szczecin-workshop-pro-101",
    "city": "Szczecin",
    "country": "PL",
    "lat": 53.4185,
    "lng": 14.5928,
    "relay": "https://box-hetzner-helsinki.macula.io:4433",
    "site_type": "business"
  },
  {
    "name": "the-wisniewski-102",
    "city": "Lublin",
    "country": "PL",
    "lat": 51.3215,
    "lng": 22.7004,
    "relay": "https://box-hetzner-helsinki.macula.io:4433",
    "site_type": "family"
  },
  {
    "name": "the-wojcik-103",
    "city": "Katowice",
    "country": "PL",
    "lat": 50.4249,
    "lng": 18.8478,
    "relay": "https://box-hetzner-helsinki.macula.io:4433",
    "site_type": "family"
  },
  {
    "name": "rzeszow-digital-hub-104",
    "city": "Rzeszow",
    "country": "PL",
    "lat": 50.2862,
    "lng": 21.9151,
    "relay": "https://box-hetzner-helsinki.macula.io:4433",
    "site_type": "business"
  },
  {
    "name": "the-novotny-105",
    "city": "Prague",
    "country": "CZ",
    "lat": 49.9055,
    "lng": 14.4458,
    "relay": "https://box-hetzner-helsinki.macula.io:4433",
    "site_type": "family"
  },
  {
    "name": "brno-data-hub-106",
    "city": "Brno",
    "country": "CZ",
    "lat": 49.1101,
    "lng": 16.7068,
    "relay": "https://box-hetzner-helsinki.macula.io:4433",
    "site_type": "business"
  },
  {
    "name": "the-szabo-107",
    "city": "Bratislava",
    "country": "SK",
    "lat": 48.1486,
    "lng": 17.2997,
    "relay": "https://box-hetzner-helsinki.macula.io:4433",
    "site_type": "family"
  },
  {
    "name": "the-horvath-108",
    "city": "Kosice",
    "country": "SK",
    "lat": 48.8014,
    "lng": 21.1451,
    "relay": "https://box-hetzner-helsinki.macula.io:4433",
    "site_type": "family"
  },
  {
    "name": "budapest-app-pro-109",
    "city": "Budapest",
    "country": "HU",
    "lat": 47.6679,
    "lng": 19.0162,
    "relay": "https://box-hetzner-helsinki.macula.io:4433",
    "site_type": "business"
  },
  {
    "name": "the-nagy-110",
    "city": "Debrecen",
    "country": "HU",
    "lat": 47.2866,
    "lng": 21.6953,
    "relay": "https://box-hetzner-helsinki.macula.io:4433",
    "site_type": "family"
  },
  {
    "name": "buchares-wind-pro-111",
    "city": "Bucharest",
    "country": "RO",
    "lat": 44.2668,
    "lng": 26.2625,
    "relay": "https://box-hetzner-helsinki.macula.io:4433",
    "site_type": "business"
  },
  {
    "name": "the-popescu-112",
    "city": "Cluj-Napoca",
    "country": "RO",
    "lat": 46.6962,
    "lng": 23.4756,
    "relay": "https://box-hetzner-helsinki.macula.io:4433",
    "site_type": "family"
  },
  {
    "name": "the-ionescu-113",
    "city": "Timisoara",
    "country": "RO",
    "lat": 45.7589,
    "lng": 21.1527,
    "relay": "https://box-hetzner-helsinki.macula.io:4433",
    "site_type": "family"
  },
  {
    "name": "iasi-green-hub-114",
    "city": "Iasi",
    "country": "RO",
    "lat": 47.2535,
    "lng": 27.6374,
    "relay": "https://box-hetzner-helsinki.macula.io:4433",
    "site_type": "business"
  },
  {
    "name": "the-stan-115",
    "city": "Constanta",
    "country": "RO",
    "lat": 44.3398,
    "lng": 28.7628,
    "relay": "https://box-hetzner-helsinki.macula.io:4433",
    "site_type": "family"
  },
  {
    "name": "brasov-logistics-hub-116",
    "city": "Brasov",
    "country": "RO",
    "lat": 45.4077,
    "lng": 25.4087,
    "relay": "https://box-hetzner-helsinki.macula.io:4433",
    "site_type": "business"
  },
  {
    "name": "the-petrov-117",
    "city": "Sofia",
    "country": "BG",
    "lat": 42.5477,
    "lng": 23.2339,
    "relay": "https://box-hetzner-helsinki.macula.io:4433",
    "site_type": "family"
  },
  {
    "name": "the-georgiev-118",
    "city": "Plovdiv",
    "country": "BG",
    "lat": 42.0704,
    "lng": 24.7493,
    "relay": "https://box-hetzner-helsinki.macula.io:4433",
    "site_type": "family"
  },
  {
    "name": "thessalo-freight-pro-119",
    "city": "Thessaloniki",
    "country": "GR",
    "lat": 40.6601,
    "lng": 23.0404,
    "relay": "https://box-hetzner-helsinki.macula.io:4433",
    "site_type": "business"
  },
  {
    "name": "the-rusu-120",
    "city": "Chisinau",
    "country": "MD",
    "lat": 47.1155,
    "lng": 29.0518,
    "relay": "https://box-hetzner-helsinki.macula.io:4433",
    "site_type": "family"
  },
  {
    "name": "kyiv-press-pro-121",
    "city": "Kyiv",
    "country": "UA",
    "lat": 50.6401,
    "lng": 30.4034,
    "relay": "https://box-hetzner-helsinki.macula.io:4433",
    "site_type": "business"
  },
  {
    "name": "the-moroz-122",
    "city": "Lviv",
    "country": "UA",
    "lat": 49.6147,
    "lng": 24.0017,
    "relay": "https://box-hetzner-helsinki.macula.io:4433",
    "site_type": "family"
  },
  {
    "name": "the-lysenko-123",
    "city": "Odessa",
    "country": "UA",
    "lat": 46.3425,
    "lng": 30.7873,
    "relay": "https://box-hetzner-helsinki.macula.io:4433",
    "site_type": "family"
  },
  {
    "name": "kharkiv-legal-hub-124",
    "city": "Kharkiv",
    "country": "UA",
    "lat": 49.9385,
    "lng": 36.3864,
    "relay": "https://box-hetzner-helsinki.macula.io:4433",
    "site_type": "business"
  },
  {
    "name": "the-marchenko-125",
    "city": "Dnipro",
    "country": "UA",
    "lat": 48.4947,
    "lng": 34.8942,
    "relay": "https://box-hetzner-helsinki.macula.io:4433",
    "site_type": "family"
  },
  {
    "name": "zaporizh-audit-hub-126",
    "city": "Zaporizhzhia",
    "country": "UA",
    "lat": 47.9538,
    "lng": 35.0796,
    "relay": "https://box-hetzner-helsinki.macula.io:4433",
    "site_type": "business"
  },
  {
    "name": "the-petrenko-127",
    "city": "Vinnytsia",
    "country": "UA",
    "lat": 49.4331,
    "lng": 28.5002,
    "relay": "https://box-hetzner-helsinki.macula.io:4433",
    "site_type": "family"
  },
  {
    "name": "the-kravchenko-128",
    "city": "Poltava",
    "country": "UA",
    "lat": 49.3733,
    "lng": 34.6754,
    "relay": "https://box-hetzner-helsinki.macula.io:4433",
    "site_type": "family"
  },
  {
    "name": "chernihi-arch-pro-129",
    "city": "Chernihiv",
    "country": "UA",
    "lat": 51.3682,
    "lng": 31.1053,
    "relay": "https://box-hetzner-helsinki.macula.io:4433",
    "site_type": "business"
  },
  {
    "name": "the-polishchuk-130",
    "city": "Sumy",
    "country": "UA",
    "lat": 50.8627,
    "lng": 34.7061,
    "relay": "https://box-hetzner-helsinki.macula.io:4433",
    "site_type": "family"
  },
  {
    "name": "zhytomyr-construct-pro-131",
    "city": "Zhytomyr",
    "country": "UA",
    "lat": 50.2947,
    "lng": 28.6587,
    "relay": "https://box-hetzner-helsinki.macula.io:4433",
    "site_type": "business"
  },
  {
    "name": "the-yarosh-132",
    "city": "Rivne",
    "country": "UA",
    "lat": 50.7449,
    "lng": 26.3436,
    "relay": "https://box-hetzner-helsinki.macula.io:4433",
    "site_type": "family"
  },
  {
    "name": "the-gavrylyuk-133",
    "city": "Ternopil",
    "country": "UA",
    "lat": 49.7635,
    "lng": 25.7788,
    "relay": "https://box-hetzner-helsinki.macula.io:4433",
    "site_type": "family"
  },
  {
    "name": "cherkasy-organic-hub-134",
    "city": "Cherkasy",
    "country": "UA",
    "lat": 49.2394,
    "lng": 31.9358,
    "relay": "https://box-hetzner-helsinki.macula.io:4433",
    "site_type": "business"
  },
  {
    "name": "the-ponomarenko-135",
    "city": "Mykolaiv",
    "country": "UA",
    "lat": 46.855,
    "lng": 31.9626,
    "relay": "https://box-hetzner-helsinki.macula.io:4433",
    "site_type": "family"
  },
  {
    "name": "kherson-bakery-hub-136",
    "city": "Kherson",
    "country": "UA",
    "lat": 46.6004,
    "lng": 32.6769,
    "relay": "https://box-hetzner-helsinki.macula.io:4433",
    "site_type": "business"
  },
  {
    "name": "the-mazur-137",
    "city": "Donetsk",
    "country": "UA",
    "lat": 48.0659,
    "lng": 37.9549,
    "relay": "https://box-hetzner-helsinki.macula.io:4433",
    "site_type": "family"
  },
  {
    "name": "the-shevchenko-138",
    "city": "Luhansk",
    "country": "UA",
    "lat": 48.709,
    "lng": 39.1518,
    "relay": "https://box-hetzner-helsinki.macula.io:4433",
    "site_type": "family"
  },
  {
    "name": "mariupol-clinic-pro-139",
    "city": "Mariupol",
    "country": "UA",
    "lat": 47.3158,
    "lng": 37.4854,
    "relay": "https://box-hetzner-helsinki.macula.io:4433",
    "site_type": "business"
  },
  {
    "name": "the-kovalenko-140",
    "city": "Kramatorsk",
    "country": "UA",
    "lat": 48.5414,
    "lng": 37.5838,
    "relay": "https://box-hetzner-helsinki.macula.io:4433",
    "site_type": "family"
  },
  {
    "name": "ivano-fr-gym-pro-141",
    "city": "Ivano-Frankivsk",
    "country": "UA",
    "lat": 48.8126,
    "lng": 24.8311,
    "relay": "https://box-hetzner-helsinki.macula.io:4433",
    "site_type": "business"
  },
  {
    "name": "the-melnyk-142",
    "city": "Uzhhorod",
    "country": "UA",
    "lat": 48.5958,
    "lng": 22.0999,
    "relay": "https://box-hetzner-helsinki.macula.io:4433",
    "site_type": "family"
  },
  {
    "name": "the-boyko-143",
    "city": "Lutsk",
    "country": "UA",
    "lat": 50.8072,
    "lng": 25.2294,
    "relay": "https://box-hetzner-helsinki.macula.io:4433",
    "site_type": "family"
  },
  {
    "name": "khmelnyt-florist-hub-144",
    "city": "Khmelnytskyi",
    "country": "UA",
    "lat": 49.568,
    "lng": 26.9831,
    "relay": "https://box-hetzner-helsinki.macula.io:4433",
    "site_type": "business"
  },
  {
    "name": "the-lysenko-145",
    "city": "Chernivtsi",
    "country": "UA",
    "lat": 48.5221,
    "lng": 26.0238,
    "relay": "https://box-hetzner-helsinki.macula.io:4433",
    "site_type": "family"
  },
  {
    "name": "kropyvny-vet-hub-146",
    "city": "Kropyvnytskyi",
    "country": "UA",
    "lat": 48.3229,
    "lng": 32.4423,
    "relay": "https://box-hetzner-helsinki.macula.io:4433",
    "site_type": "business"
  },
  {
    "name": "the-marchenko-147",
    "city": "Nikopol",
    "country": "UA",
    "lat": 47.4715,
    "lng": 34.2655,
    "relay": "https://box-hetzner-helsinki.macula.io:4433",
    "site_type": "family"
  },
  {
    "name": "the-rudenko-148",
    "city": "Melitopol",
    "country": "UA",
    "lat": 46.8339,
    "lng": 35.3315,
    "relay": "https://box-hetzner-helsinki.macula.io:4433",
    "site_type": "family"
  },
  {
    "name": "severodo-lab-pro-149",
    "city": "Severodonetsk",
    "country": "UA",
    "lat": 49.0184,
    "lng": 38.5497,
    "relay": "https://box-hetzner-helsinki.macula.io:4433",
    "site_type": "business"
  },
  {
    "name": "the-walker-150",
    "city": "London",
    "country": "GB",
    "lat": 51.6624,
    "lng": 0.0202,
    "relay": "https://box-hetzner-nuremberg.macula.io:4433",
    "site_type": "family"
  },
  {
    "name": "edinburg-brewery-pro-151",
    "city": "Edinburgh",
    "country": "GB",
    "lat": 56.1933,
    "lng": -3.3483,
    "relay": "https://box-hetzner-nuremberg.macula.io:4433",
    "site_type": "business"
  },
  {
    "name": "the-robinson-152",
    "city": "Manchester",
    "country": "GB",
    "lat": 53.3058,
    "lng": -2.3106,
    "relay": "https://box-hetzner-nuremberg.macula.io:4433",
    "site_type": "family"
  },
  {
    "name": "the-thompson-153",
    "city": "Birmingham",
    "country": "GB",
    "lat": 52.3962,
    "lng": -1.8664,
    "relay": "https://box-hetzner-nuremberg.macula.io:4433",
    "site_type": "family"
  },
  {
    "name": "glasgow-workshop-hub-154",
    "city": "Glasgow",
    "country": "GB",
    "lat": 55.8592,
    "lng": -4.1358,
    "relay": "https://box-hetzner-nuremberg.macula.io:4433",
    "site_type": "business"
  },
  {
    "name": "the-hall-155",
    "city": "Leeds",
    "country": "GB",
    "lat": 53.8808,
    "lng": -1.7411,
    "relay": "https://box-hetzner-nuremberg.macula.io:4433",
    "site_type": "family"
  },
  {
    "name": "bristol-tech-hub-156",
    "city": "Bristol",
    "country": "GB",
    "lat": 51.6195,
    "lng": -2.6879,
    "relay": "https://box-hetzner-nuremberg.macula.io:4433",
    "site_type": "business"
  },
  {
    "name": "the-harris-157",
    "city": "Cardiff",
    "country": "GB",
    "lat": 51.2316,
    "lng": -3.1871,
    "relay": "https://box-hetzner-nuremberg.macula.io:4433",
    "site_type": "family"
  },
  {
    "name": "the-clark-158",
    "city": "Belfast",
    "country": "GB",
    "lat": 54.4323,
    "lng": -5.8461,
    "relay": "https://box-hetzner-nuremberg.macula.io:4433",
    "site_type": "family"
  },
  {
    "name": "dublin-data-pro-159",
    "city": "Dublin",
    "country": "IE",
    "lat": 53.2698,
    "lng": -6.0843,
    "relay": "https://box-hetzner-nuremberg.macula.io:4433",
    "site_type": "business"
  },
  {
    "name": "the-murphy-160",
    "city": "Cork",
    "country": "IE",
    "lat": 51.9035,
    "lng": -8.6076,
    "relay": "https://box-hetzner-nuremberg.macula.io:4433",
    "site_type": "family"
  },
  {
    "name": "paris-web-pro-161",
    "city": "Paris",
    "country": "FR",
    "lat": 48.9466,
    "lng": 2.3122,
    "relay": "https://box-hetzner-nuremberg.macula.io:4433",
    "site_type": "business"
  },
  {
    "name": "famille-dupont-162",
    "city": "Lyon",
    "country": "FR",
    "lat": 45.939,
    "lng": 4.8877,
    "relay": "https://box-hetzner-nuremberg.macula.io:4433",
    "site_type": "family"
  },
  {
    "name": "famille-lambert-163",
    "city": "Marseille",
    "country": "FR",
    "lat": 43.0565,
    "lng": 5.5138,
    "relay": "https://box-hetzner-nuremberg.macula.io:4433",
    "site_type": "family"
  },
  {
    "name": "toulouse-wind-hub-164",
    "city": "Toulouse",
    "country": "FR",
    "lat": 43.4497,
    "lng": 1.2802,
    "relay": "https://box-hetzner-nuremberg.macula.io:4433",
    "site_type": "business"
  },
  {
    "name": "famille-martin-165",
    "city": "Nice",
    "country": "FR",
    "lat": 43.6402,
    "lng": 7.19,
    "relay": "https://box-hetzner-nuremberg.macula.io:4433",
    "site_type": "family"
  },
  {
    "name": "nantes-eco-hub-166",
    "city": "Nantes",
    "country": "FR",
    "lat": 47.2334,
    "lng": -1.5336,
    "relay": "https://box-hetzner-nuremberg.macula.io:4433",
    "site_type": "business"
  },
  {
    "name": "famille-dubois-167",
    "city": "Strasbourg",
    "country": "FR",
    "lat": 48.6734,
    "lng": 7.8641,
    "relay": "https://box-hetzner-nuremberg.macula.io:4433",
    "site_type": "family"
  },
  {
    "name": "famille-petit-168",
    "city": "Bordeaux",
    "country": "FR",
    "lat": 45.0228,
    "lng": -0.7752,
    "relay": "https://box-hetzner-nuremberg.macula.io:4433",
    "site_type": "family"
  },
  {
    "name": "lille-logistics-pro-169",
    "city": "Lille",
    "country": "FR",
    "lat": 50.3992,
    "lng": 2.9533,
    "relay": "https://box-hetzner-nuremberg.macula.io:4433",
    "site_type": "business"
  },
  {
    "name": "de-willems-170",
    "city": "Brussels",
    "country": "BE",
    "lat": 50.7053,
    "lng": 4.3397,
    "relay": "https://box-hetzner-nuremberg.macula.io:4433",
    "site_type": "family"
  },
  {
    "name": "antwerp-express-pro-171",
    "city": "Antwerp",
    "country": "BE",
    "lat": 51.1594,
    "lng": 4.4825,
    "relay": "https://box-hetzner-nuremberg.macula.io:4433",
    "site_type": "business"
  },
  {
    "name": "de-goossens-172",
    "city": "Ghent",
    "country": "BE",
    "lat": 51.0793,
    "lng": 3.8894,
    "relay": "https://box-hetzner-nuremberg.macula.io:4433",
    "site_type": "family"
  },
  {
    "name": "de-wouters-173",
    "city": "Liege",
    "country": "BE",
    "lat": 50.7392,
    "lng": 5.4437,
    "relay": "https://box-hetzner-nuremberg.macula.io:4433",
    "site_type": "family"
  },
  {
    "name": "charlero-press-hub-174",
    "city": "Charleroi",
    "country": "BE",
    "lat": 50.6058,
    "lng": 4.4006,
    "relay": "https://box-hetzner-nuremberg.macula.io:4433",
    "site_type": "business"
  },
  {
    "name": "van-de-jong-175",
    "city": "Amsterdam",
    "country": "NL",
    "lat": 52.1476,
    "lng": 4.9521,
    "relay": "https://box-hetzner-nuremberg.macula.io:4433",
    "site_type": "family"
  },
  {
    "name": "rotterda-print-hub-176",
    "city": "Rotterdam",
    "country": "NL",
    "lat": 51.7894,
    "lng": 4.6177,
    "relay": "https://box-hetzner-nuremberg.macula.io:4433",
    "site_type": "business"
  },
  {
    "name": "van-de-vries-177",
    "city": "Utrecht",
    "country": "NL",
    "lat": 52.0407,
    "lng": 4.9534,
    "relay": "https://box-hetzner-nuremberg.macula.io:4433",
    "site_type": "family"
  },
  {
    "name": "van-van-dijk-178",
    "city": "Eindhoven",
    "country": "NL",
    "lat": 51.4766,
    "lng": 5.3937,
    "relay": "https://box-hetzner-nuremberg.macula.io:4433",
    "site_type": "family"
  },
  {
    "name": "groninge-audit-pro-179",
    "city": "Groningen",
    "country": "NL",
    "lat": 53.3394,
    "lng": 6.5825,
    "relay": "https://box-hetzner-nuremberg.macula.io:4433",
    "site_type": "business"
  },
  {
    "name": "van-visser-180",
    "city": "Den Haag",
    "country": "NL",
    "lat": 52.2755,
    "lng": 4.4087,
    "relay": "https://box-hetzner-nuremberg.macula.io:4433",
    "site_type": "family"
  },
  {
    "name": "luxembou-design-pro-181",
    "city": "Luxembourg",
    "country": "LU",
    "lat": 49.4017,
    "lng": 5.93,
    "relay": "https://box-hetzner-nuremberg.macula.io:4433",
    "site_type": "business"
  },
  {
    "name": "familie-hoffmann-182",
    "city": "Berlin",
    "country": "DE",
    "lat": 52.395,
    "lng": 13.297,
    "relay": "https://box-hetzner-nuremberg.macula.io:4433",
    "site_type": "family"
  },
  {
    "name": "familie-koch-183",
    "city": "Munich",
    "country": "DE",
    "lat": 48.0951,
    "lng": 11.566,
    "relay": "https://box-hetzner-nuremberg.macula.io:4433",
    "site_type": "family"
  },
  {
    "name": "hamburg-construct-hub-184",
    "city": "Hamburg",
    "country": "DE",
    "lat": 53.5961,
    "lng": 10.0697,
    "relay": "https://box-hetzner-nuremberg.macula.io:4433",
    "site_type": "business"
  },
  {
    "name": "familie-schmidt-185",
    "city": "Frankfurt",
    "country": "DE",
    "lat": 50.2409,
    "lng": 8.8501,
    "relay": "https://box-hetzner-nuremberg.macula.io:4433",
    "site_type": "family"
  },
  {
    "name": "cologne-fresh-hub-186",
    "city": "Cologne",
    "country": "DE",
    "lat": 51.1525,
    "lng": 6.8203,
    "relay": "https://box-hetzner-nuremberg.macula.io:4433",
    "site_type": "business"
  },
  {
    "name": "familie-fischer-187",
    "city": "Stuttgart",
    "country": "DE",
    "lat": 48.5758,
    "lng": 9.1349,
    "relay": "https://box-hetzner-nuremberg.macula.io:4433",
    "site_type": "family"
  },
  {
    "name": "familie-weber-188",
    "city": "Dusseldorf",
    "country": "DE",
    "lat": 51.1127,
    "lng": 6.8175,
    "relay": "https://box-hetzner-nuremberg.macula.io:4433",
    "site_type": "family"
  },
  {
    "name": "leipzig-bakery-pro-189",
    "city": "Leipzig",
    "country": "DE",
    "lat": 51.3097,
    "lng": 12.5091,
    "relay": "https://box-hetzner-nuremberg.macula.io:4433",
    "site_type": "business"
  },
  {
    "name": "familie-becker-190",
    "city": "Dresden",
    "country": "DE",
    "lat": 51.1054,
    "lng": 13.5653,
    "relay": "https://box-hetzner-nuremberg.macula.io:4433",
    "site_type": "family"
  },
  {
    "name": "nurember-pharmacy-pro-191",
    "city": "Nuremberg",
    "country": "DE",
    "lat": 49.5921,
    "lng": 10.9967,
    "relay": "https://box-hetzner-nuremberg.macula.io:4433",
    "site_type": "business"
  },
  {
    "name": "the-steiner-192",
    "city": "Zurich",
    "country": "CH",
    "lat": 47.6019,
    "lng": 8.5537,
    "relay": "https://box-hetzner-nuremberg.macula.io:4433",
    "site_type": "family"
  },
  {
    "name": "the-mueller-193",
    "city": "Geneva",
    "country": "CH",
    "lat": 46.0144,
    "lng": 6.2472,
    "relay": "https://box-hetzner-nuremberg.macula.io:4433",
    "site_type": "family"
  },
  {
    "name": "bern-gym-hub-194",
    "city": "Bern",
    "country": "CH",
    "lat": 46.843,
    "lng": 7.6434,
    "relay": "https://box-hetzner-nuremberg.macula.io:4433",
    "site_type": "business"
  },
  {
    "name": "the-berger-195",
    "city": "Vienna",
    "country": "AT",
    "lat": 48.1882,
    "lng": 16.2618,
    "relay": "https://box-hetzner-nuremberg.macula.io:4433",
    "site_type": "family"
  },
  {
    "name": "graz-garage-hub-196",
    "city": "Graz",
    "country": "AT",
    "lat": 47.1357,
    "lng": 15.4195,
    "relay": "https://box-hetzner-nuremberg.macula.io:4433",
    "site_type": "business"
  },
  {
    "name": "the-moser-197",
    "city": "Salzburg",
    "country": "AT",
    "lat": 47.9595,
    "lng": 13.127,
    "relay": "https://box-hetzner-nuremberg.macula.io:4433",
    "site_type": "family"
  },
  {
    "name": "casa-fernandez-198",
    "city": "Madrid",
    "country": "ES",
    "lat": 40.6518,
    "lng": -3.5398,
    "relay": "https://box-hetzner-nuremberg.macula.io:4433",
    "site_type": "family"
  },
  {
    "name": "barcelon-vet-pro-199",
    "city": "Barcelona",
    "country": "ES",
    "lat": 41.2051,
    "lng": 2.0294,
    "relay": "https://box-hetzner-nuremberg.macula.io:4433",
    "site_type": "business"
  },
  {
    "name": "casa-perez-200",
    "city": "Valencia",
    "country": "ES",
    "lat": 39.3749,
    "lng": -0.4283,
    "relay": "https://box-hetzner-nuremberg.macula.io:4433",
    "site_type": "family"
  },
  {
    "name": "seville-salon-pro-201",
    "city": "Seville",
    "country": "ES",
    "lat": 37.3791,
    "lng": -5.9445,
    "relay": "https://box-hetzner-nuremberg.macula.io:4433",
    "site_type": "business"
  },
  {
    "name": "casa-garcia-202",
    "city": "Bilbao",
    "country": "ES",
    "lat": 43.338,
    "lng": -2.803,
    "relay": "https://box-hetzner-nuremberg.macula.io:4433",
    "site_type": "family"
  },
  {
    "name": "casa-martinez-203",
    "city": "Malaga",
    "country": "ES",
    "lat": 36.8813,
    "lng": -4.5974,
    "relay": "https://box-hetzner-nuremberg.macula.io:4433",
    "site_type": "family"
  },
  {
    "name": "lisbon-brewery-hub-204",
    "city": "Lisbon",
    "country": "PT",
    "lat": 38.9673,
    "lng": -9.2233,
    "relay": "https://box-hetzner-nuremberg.macula.io:4433",
    "site_type": "business"
  },
  {
    "name": "casa-costa-205",
    "city": "Porto",
    "country": "PT",
    "lat": 40.9879,
    "lng": -8.6211,
    "relay": "https://box-hetzner-nuremberg.macula.io:4433",
    "site_type": "family"
  },
  {
    "name": "rome-creamery-hub-206",
    "city": "Rome",
    "country": "IT",
    "lat": 41.8178,
    "lng": 12.5964,
    "relay": "https://box-hetzner-nuremberg.macula.io:4433",
    "site_type": "business"
  },
  {
    "name": "casa-ricci-207",
    "city": "Milan",
    "country": "IT",
    "lat": 45.4642,
    "lng": 9.382,
    "relay": "https://box-hetzner-nuremberg.macula.io:4433",
    "site_type": "family"
  },
  {
    "name": "casa-marino-208",
    "city": "Naples",
    "country": "IT",
    "lat": 40.9368,
    "lng": 14.1521,
    "relay": "https://box-hetzner-nuremberg.macula.io:4433",
    "site_type": "family"
  },
  {
    "name": "turin-tech-pro-209",
    "city": "Turin",
    "country": "IT",
    "lat": 45.2403,
    "lng": 7.6629,
    "relay": "https://box-hetzner-nuremberg.macula.io:4433",
    "site_type": "business"
  },
  {
    "name": "casa-rossi-210",
    "city": "Florence",
    "country": "IT",
    "lat": 43.5246,
    "lng": 11.3238,
    "relay": "https://box-hetzner-nuremberg.macula.io:4433",
    "site_type": "family"
  },
  {
    "name": "venice-cloud-pro-211",
    "city": "Venice",
    "country": "IT",
    "lat": 45.2808,
    "lng": 12.4755,
    "relay": "https://box-hetzner-nuremberg.macula.io:4433",
    "site_type": "business"
  },
  {
    "name": "casa-ferrari-212",
    "city": "Palermo",
    "country": "IT",
    "lat": 38.0407,
    "lng": 13.2135,
    "relay": "https://box-hetzner-nuremberg.macula.io:4433",
    "site_type": "family"
  },
  {
    "name": "the-novak-213",
    "city": "Zagreb",
    "country": "HR",
    "lat": 45.825,
    "lng": 15.9259,
    "relay": "https://box-hetzner-nuremberg.macula.io:4433",
    "site_type": "family"
  },
  {
    "name": "ljubljan-web-hub-214",
    "city": "Ljubljana",
    "country": "SI",
    "lat": 46.1519,
    "lng": 14.5418,
    "relay": "https://box-hetzner-nuremberg.macula.io:4433",
    "site_type": "business"
  },
  {
    "name": "the-jovanovic-215",
    "city": "Belgrade",
    "country": "RS",
    "lat": 44.9666,
    "lng": 20.5769,
    "relay": "https://box-hetzner-nuremberg.macula.io:4433",
    "site_type": "family"
  },
  {
    "name": "sarajevo-solar-hub-216",
    "city": "Sarajevo",
    "country": "BA",
    "lat": 43.6213,
    "lng": 18.2331,
    "relay": "https://box-hetzner-nuremberg.macula.io:4433",
    "site_type": "business"
  },
  {
    "name": "the-popovic-217",
    "city": "Podgorica",
    "country": "ME",
    "lat": 42.2804,
    "lng": 19.1714,
    "relay": "https://box-hetzner-nuremberg.macula.io:4433",
    "site_type": "family"
  },
  {
    "name": "the-shehu-218",
    "city": "Tirana",
    "country": "AL",
    "lat": 41.2625,
    "lng": 19.8227,
    "relay": "https://box-hetzner-nuremberg.macula.io:4433",
    "site_type": "family"
  },
  {
    "name": "skopje-eco-pro-219",
    "city": "Skopje",
    "country": "MK",
    "lat": 42.0173,
    "lng": 21.524,
    "relay": "https://box-hetzner-nuremberg.macula.io:4433",
    "site_type": "business"
  },
  {
    "name": "the-borg-220",
    "city": "Valletta",
    "country": "MT",
    "lat": 36.0039,
    "lng": 14.7026,
    "relay": "https://box-hetzner-nuremberg.macula.io:4433",
    "site_type": "family"
  },
  {
    "name": "nicosia-smart-pro-221",
    "city": "Nicosia",
    "country": "CY",
    "lat": 35.3756,
    "lng": 33.2623,
    "relay": "https://box-hetzner-nuremberg.macula.io:4433",
    "site_type": "business"
  },
  {
    "name": "the-gudmundsson-222",
    "city": "Reykjavik",
    "country": "IS",
    "lat": 63.9216,
    "lng": -21.9706,
    "relay": "https://box-hetzner-nuremberg.macula.io:4433",
    "site_type": "family"
  },
  {
    "name": "casa-esposito-223",
    "city": "Bari",
    "country": "IT",
    "lat": 40.9771,
    "lng": 16.9359,
    "relay": "https://box-hetzner-nuremberg.macula.io:4433",
    "site_type": "family"
  },
  {
    "name": "athens-express-hub-224",
    "city": "Athens",
    "country": "GR",
    "lat": 37.9288,
    "lng": 23.8835,
    "relay": "https://box-hetzner-nuremberg.macula.io:4433",
    "site_type": "business"
  },
  {
    "name": "the-hamalainen-225",
    "city": "Helsinki",
    "country": "FI",
    "lat": 60.1999,
    "lng": 24.7864,
    "relay": "https://box-hetzner-helsinki.macula.io:4433",
    "site_type": "family"
  },
  {
    "name": "tampere-media-hub-226",
    "city": "Tampere",
    "country": "FI",
    "lat": 61.6128,
    "lng": 23.701,
    "relay": "https://box-hetzner-helsinki.macula.io:4433",
    "site_type": "business"
  },
  {
    "name": "the-heikkinen-227",
    "city": "Turku",
    "country": "FI",
    "lat": 60.6518,
    "lng": 22.2986,
    "relay": "https://box-hetzner-helsinki.macula.io:4433",
    "site_type": "family"
  },
  {
    "name": "the-korhonen-228",
    "city": "Oulu",
    "country": "FI",
    "lat": 64.7971,
    "lng": 25.5891,
    "relay": "https://box-hetzner-helsinki.macula.io:4433",
    "site_type": "family"
  },
  {
    "name": "stockhol-print-pro-229",
    "city": "Stockholm",
    "country": "SE",
    "lat": 59.1993,
    "lng": 17.8846,
    "relay": "https://box-hetzner-helsinki.macula.io:4433",
    "site_type": "business"
  },
  {
    "name": "the-karlsson-230",
    "city": "Gothenburg",
    "country": "SE",
    "lat": 57.6639,
    "lng": 11.8826,
    "relay": "https://box-hetzner-helsinki.macula.io:4433",
    "site_type": "family"
  },
  {
    "name": "malmo-consult-pro-231",
    "city": "Malmo",
    "country": "SE",
    "lat": 55.645,
    "lng": 13.0038,
    "relay": "https://box-hetzner-helsinki.macula.io:4433",
    "site_type": "business"
  },
  {
    "name": "the-eriksson-232",
    "city": "Uppsala",
    "country": "SE",
    "lat": 59.9836,
    "lng": 17.7309,
    "relay": "https://box-hetzner-helsinki.macula.io:4433",
    "site_type": "family"
  },
  {
    "name": "the-pedersen-233",
    "city": "Oslo",
    "country": "NO",
    "lat": 60.1239,
    "lng": 10.9362,
    "relay": "https://box-hetzner-helsinki.macula.io:4433",
    "site_type": "family"
  },
  {
    "name": "bergen-design-hub-234",
    "city": "Bergen",
    "country": "NO",
    "lat": 60.1863,
    "lng": 5.1981,
    "relay": "https://box-hetzner-helsinki.macula.io:4433",
    "site_type": "business"
  },
  {
    "name": "the-kristiansen-235",
    "city": "Trondheim",
    "country": "NO",
    "lat": 63.3105,
    "lng": 10.3631,
    "relay": "https://box-hetzner-helsinki.macula.io:4433",
    "site_type": "family"
  },
  {
    "name": "copenhag-build-hub-236",
    "city": "Copenhagen",
    "country": "DK",
    "lat": 55.6411,
    "lng": 12.6283,
    "relay": "https://box-hetzner-helsinki.macula.io:4433",
    "site_type": "business"
  },
  {
    "name": "the-nielsen-237",
    "city": "Aarhus",
    "country": "DK",
    "lat": 56.2129,
    "lng": 10.3559,
    "relay": "https://box-hetzner-helsinki.macula.io:4433",
    "site_type": "family"
  },
  {
    "name": "the-koppel-238",
    "city": "Tallinn",
    "country": "EE",
    "lat": 59.572,
    "lng": 24.5976,
    "relay": "https://box-hetzner-helsinki.macula.io:4433",
    "site_type": "family"
  },
  {
    "name": "tartu-fresh-pro-239",
    "city": "Tartu",
    "country": "EE",
    "lat": 58.598,
    "lng": 26.665,
    "relay": "https://box-hetzner-helsinki.macula.io:4433",
    "site_type": "business"
  },
  {
    "name": "the-liepa-240",
    "city": "Riga",
    "country": "LV",
    "lat": 56.7546,
    "lng": 24.1332,
    "relay": "https://box-hetzner-helsinki.macula.io:4433",
    "site_type": "family"
  },
  {
    "name": "daugavpi-market-pro-241",
    "city": "Daugavpils",
    "country": "LV",
    "lat": 55.7649,
    "lng": 26.6556,
    "relay": "https://box-hetzner-helsinki.macula.io:4433",
    "site_type": "business"
  },
  {
    "name": "the-butkus-242",
    "city": "Vilnius",
    "country": "LT",
    "lat": 54.6622,
    "lng": 25.0917,
    "relay": "https://box-hetzner-helsinki.macula.io:4433",
    "site_type": "family"
  },
  {
    "name": "the-paulauskas-243",
    "city": "Kaunas",
    "country": "LT",
    "lat": 54.9585,
    "lng": 23.8076,
    "relay": "https://box-hetzner-helsinki.macula.io:4433",
    "site_type": "family"
  },
  {
    "name": "klaipeda-pharmacy-hub-244",
    "city": "Klaipeda",
    "country": "LT",
    "lat": 55.8483,
    "lng": 21.1403,
    "relay": "https://box-hetzner-helsinki.macula.io:4433",
    "site_type": "business"
  },
  {
    "name": "the-kowalski-245",
    "city": "Warsaw",
    "country": "PL",
    "lat": 52.4597,
    "lng": 21.1002,
    "relay": "https://box-hetzner-helsinki.macula.io:4433",
    "site_type": "family"
  },
  {
    "name": "krakow-school-hub-246",
    "city": "Krakow",
    "country": "PL",
    "lat": 49.8797,
    "lng": 20.125,
    "relay": "https://box-hetzner-helsinki.macula.io:4433",
    "site_type": "business"
  },
  {
    "name": "the-wojcik-247",
    "city": "Gdansk",
    "country": "PL",
    "lat": 54.252,
    "lng": 18.5186,
    "relay": "https://box-hetzner-helsinki.macula.io:4433",
    "site_type": "family"
  },
  {
    "name": "the-kaminski-248",
    "city": "Wroclaw",
    "country": "PL",
    "lat": 51.0929,
    "lng": 17.0025,
    "relay": "https://box-hetzner-helsinki.macula.io:4433",
    "site_type": "family"
  },
  {
    "name": "poznan-garage-pro-249",
    "city": "Poznan",
    "country": "PL",
    "lat": 52.4764,
    "lng": 16.9812,
    "relay": "https://box-hetzner-helsinki.macula.io:4433",
    "site_type": "business"
  },
  {
    "name": "the-zielinski-250",
    "city": "Lodz",
    "country": "PL",
    "lat": 51.9142,
    "lng": 19.604,
    "relay": "https://box-hetzner-helsinki.macula.io:4433",
    "site_type": "family"
  },
  {
    "name": "szczecin-dentist-pro-251",
    "city": "Szczecin",
    "country": "PL",
    "lat": 53.6685,
    "lng": 14.3928,
    "relay": "https://box-hetzner-helsinki.macula.io:4433",
    "site_type": "business"
  },
  {
    "name": "the-nowak-252",
    "city": "Lublin",
    "country": "PL",
    "lat": 51.0715,
    "lng": 22.5004,
    "relay": "https://box-hetzner-helsinki.macula.io:4433",
    "site_type": "family"
  },
  {
    "name": "the-kowalski-253",
    "city": "Katowice",
    "country": "PL",
    "lat": 50.1749,
    "lng": 19.0478,
    "relay": "https://box-hetzner-helsinki.macula.io:4433",
    "site_type": "family"
  },
  {
    "name": "rzeszow-salon-hub-254",
    "city": "Rzeszow",
    "country": "PL",
    "lat": 50.0362,
    "lng": 22.1151,
    "relay": "https://box-hetzner-helsinki.macula.io:4433",
    "site_type": "business"
  },
  {
    "name": "the-horak-255",
    "city": "Prague",
    "country": "CZ",
    "lat": 50.1555,
    "lng": 14.2458,
    "relay": "https://box-hetzner-helsinki.macula.io:4433",
    "site_type": "family"
  },
  {
    "name": "brno-farm-hub-256",
    "city": "Brno",
    "country": "CZ",
    "lat": 49.3601,
    "lng": 16.5068,
    "relay": "https://box-hetzner-helsinki.macula.io:4433",
    "site_type": "business"
  },
  {
    "name": "the-balan-257",
    "city": "Bratislava",
    "country": "SK",
    "lat": 47.8986,
    "lng": 17.0997,
    "relay": "https://box-hetzner-helsinki.macula.io:4433",
    "site_type": "family"
  },
  {
    "name": "the-molnar-258",
    "city": "Kosice",
    "country": "SK",
    "lat": 48.5514,
    "lng": 21.3451,
    "relay": "https://box-hetzner-helsinki.macula.io:4433",
    "site_type": "family"
  },
  {
    "name": "budapest-creamery-pro-259",
    "city": "Budapest",
    "country": "HU",
    "lat": 47.4179,
    "lng": 19.2162,
    "relay": "https://box-hetzner-helsinki.macula.io:4433",
    "site_type": "business"
  },
  {
    "name": "the-nagy-260",
    "city": "Debrecen",
    "country": "HU",
    "lat": 47.5366,
    "lng": 21.4953,
    "relay": "https://box-hetzner-helsinki.macula.io:4433",
    "site_type": "family"
  },
  {
    "name": "buchares-forge-pro-261",
    "city": "Bucharest",
    "country": "RO",
    "lat": 44.5168,
    "lng": 26.0625,
    "relay": "https://box-hetzner-helsinki.macula.io:4433",
    "site_type": "business"
  },
  {
    "name": "the-stoica-262",
    "city": "Cluj-Napoca",
    "country": "RO",
    "lat": 46.9462,
    "lng": 23.6756,
    "relay": "https://box-hetzner-helsinki.macula.io:4433",
    "site_type": "family"
  },
  {
    "name": "the-ciobanu-263",
    "city": "Timisoara",
    "country": "RO",
    "lat": 45.5089,
    "lng": 21.3527,
    "relay": "https://box-hetzner-helsinki.macula.io:4433",
    "site_type": "family"
  },
  {
    "name": "iasi-cloud-hub-264",
    "city": "Iasi",
    "country": "RO",
    "lat": 47.0035,
    "lng": 27.4374,
    "relay": "https://box-hetzner-helsinki.macula.io:4433",
    "site_type": "business"
  },
  {
    "name": "the-popescu-265",
    "city": "Constanta",
    "country": "RO",
    "lat": 44.0898,
    "lng": 28.5628,
    "relay": "https://box-hetzner-helsinki.macula.io:4433",
    "site_type": "family"
  },
  {
    "name": "brasov-cyber-hub-266",
    "city": "Brasov",
    "country": "RO",
    "lat": 45.6577,
    "lng": 25.6087,
    "relay": "https://box-hetzner-helsinki.macula.io:4433",
    "site_type": "business"
  },
  {
    "name": "the-angelov-267",
    "city": "Sofia",
    "country": "BG",
    "lat": 42.7977,
    "lng": 23.4339,
    "relay": "https://box-hetzner-helsinki.macula.io:4433",
    "site_type": "family"
  },
  {
    "name": "the-ivanov-268",
    "city": "Plovdiv",
    "country": "BG",
    "lat": 42.3204,
    "lng": 24.5493,
    "relay": "https://box-hetzner-helsinki.macula.io:4433",
    "site_type": "family"
  },
  {
    "name": "thessalo-solar-pro-269",
    "city": "Thessaloniki",
    "country": "GR",
    "lat": 40.4101,
    "lng": 22.8404,
    "relay": "https://box-hetzner-helsinki.macula.io:4433",
    "site_type": "business"
  },
  {
    "name": "the-rusu-270",
    "city": "Chisinau",
    "country": "MD",
    "lat": 46.8655,
    "lng": 28.8518,
    "relay": "https://box-hetzner-helsinki.macula.io:4433",
    "site_type": "family"
  },
  {
    "name": "kyiv-bio-pro-271",
    "city": "Kyiv",
    "country": "UA",
    "lat": 50.3901,
    "lng": 30.6034,
    "relay": "https://box-hetzner-helsinki.macula.io:4433",
    "site_type": "business"
  },
  {
    "name": "the-kovalenko-272",
    "city": "Lviv",
    "country": "UA",
    "lat": 49.8647,
    "lng": 24.2017,
    "relay": "https://box-hetzner-helsinki.macula.io:4433",
    "site_type": "family"
  },
  {
    "name": "the-tkachenko-273",
    "city": "Odessa",
    "country": "UA",
    "lat": 46.5925,
    "lng": 30.5873,
    "relay": "https://box-hetzner-helsinki.macula.io:4433",
    "site_type": "family"
  },
  {
    "name": "kharkiv-smart-hub-274",
    "city": "Kharkiv",
    "country": "UA",
    "lat": 50.1885,
    "lng": 36.1864,
    "relay": "https://box-hetzner-helsinki.macula.io:4433",
    "site_type": "business"
  },
  {
    "name": "the-boyko-275",
    "city": "Dnipro",
    "country": "UA",
    "lat": 48.2447,
    "lng": 35.0942,
    "relay": "https://box-hetzner-helsinki.macula.io:4433",
    "site_type": "family"
  },
  {
    "name": "zaporizh-transport-hub-276",
    "city": "Zaporizhzhia",
    "country": "UA",
    "lat": 47.7038,
    "lng": 35.2796,
    "relay": "https://box-hetzner-helsinki.macula.io:4433",
    "site_type": "business"
  },
  {
    "name": "the-lysenko-277",
    "city": "Vinnytsia",
    "country": "UA",
    "lat": 49.1831,
    "lng": 28.3002,
    "relay": "https://box-hetzner-helsinki.macula.io:4433",
    "site_type": "family"
  },
  {
    "name": "the-savchenko-278",
    "city": "Poltava",
    "country": "UA",
    "lat": 49.6233,
    "lng": 34.4754,
    "relay": "https://box-hetzner-helsinki.macula.io:4433",
    "site_type": "family"
  },
  {
    "name": "chernihi-media-pro-279",
    "city": "Chernihiv",
    "country": "UA",
    "lat": 51.6182,
    "lng": 31.3053,
    "relay": "https://box-hetzner-helsinki.macula.io:4433",
    "site_type": "business"
  },
  {
    "name": "the-rudenko-280",
    "city": "Sumy",
    "country": "UA",
    "lat": 51.1127,
    "lng": 34.9061,
    "relay": "https://box-hetzner-helsinki.macula.io:4433",
    "site_type": "family"
  },
  {
    "name": "zhytomyr-radio-pro-281",
    "city": "Zhytomyr",
    "country": "UA",
    "lat": 50.0447,
    "lng": 28.4587,
    "relay": "https://box-hetzner-helsinki.macula.io:4433",
    "site_type": "business"
  },
  {
    "name": "the-kravchenko-282",
    "city": "Rivne",
    "country": "UA",
    "lat": 50.4949,
    "lng": 26.1436,
    "relay": "https://box-hetzner-helsinki.macula.io:4433",
    "site_type": "family"
  },
  {
    "name": "the-oliynyk-283",
    "city": "Ternopil",
    "country": "UA",
    "lat": 49.5135,
    "lng": 25.5788,
    "relay": "https://box-hetzner-helsinki.macula.io:4433",
    "site_type": "family"
  },
  {
    "name": "cherkasy-consult-hub-284",
    "city": "Cherkasy",
    "country": "UA",
    "lat": 49.4894,
    "lng": 32.1358,
    "relay": "https://box-hetzner-helsinki.macula.io:4433",
    "site_type": "business"
  },
  {
    "name": "the-shevchuk-285",
    "city": "Mykolaiv",
    "country": "UA",
    "lat": 47.105,
    "lng": 32.1626,
    "relay": "https://box-hetzner-helsinki.macula.io:4433",
    "site_type": "family"
  },
  {
    "name": "kherson-tax-hub-286",
    "city": "Kherson",
    "country": "UA",
    "lat": 46.8504,
    "lng": 32.4769,
    "relay": "https://box-hetzner-helsinki.macula.io:4433",
    "site_type": "business"
  },
  {
    "name": "the-gavrylyuk-287",
    "city": "Donetsk",
    "country": "UA",
    "lat": 47.8159,
    "lng": 37.7549,
    "relay": "https://box-hetzner-helsinki.macula.io:4433",
    "site_type": "family"
  },
  {
    "name": "the-tymoshenko-288",
    "city": "Luhansk",
    "country": "UA",
    "lat": 48.459,
    "lng": 39.3518,
    "relay": "https://box-hetzner-helsinki.macula.io:4433",
    "site_type": "family"
  },
  {
    "name": "mariupol-build-pro-289",
    "city": "Mariupol",
    "country": "UA",
    "lat": 47.0658,
    "lng": 37.6854,
    "relay": "https://box-hetzner-helsinki.macula.io:4433",
    "site_type": "business"
  },
  {
    "name": "the-zinchenko-290",
    "city": "Kramatorsk",
    "country": "UA",
    "lat": 48.7914,
    "lng": 37.3838,
    "relay": "https://box-hetzner-helsinki.macula.io:4433",
    "site_type": "family"
  },
  {
    "name": "ivano-fr-food-pro-291",
    "city": "Ivano-Frankivsk",
    "country": "UA",
    "lat": 49.0626,
    "lng": 24.6311,
    "relay": "https://box-hetzner-helsinki.macula.io:4433",
    "site_type": "business"
  },
  {
    "name": "the-shevchenko-292",
    "city": "Uzhhorod",
    "country": "UA",
    "lat": 48.8458,
    "lng": 22.2999,
    "relay": "https://box-hetzner-helsinki.macula.io:4433",
    "site_type": "family"
  },
  {
    "name": "the-bondarenko-293",
    "city": "Lutsk",
    "country": "UA",
    "lat": 50.5572,
    "lng": 25.4294,
    "relay": "https://box-hetzner-helsinki.macula.io:4433",
    "site_type": "family"
  },
  {
    "name": "khmelnyt-market-hub-294",
    "city": "Khmelnytskyi",
    "country": "UA",
    "lat": 49.318,
    "lng": 27.1831,
    "relay": "https://box-hetzner-helsinki.macula.io:4433",
    "site_type": "business"
  },
  {
    "name": "the-tkachenko-295",
    "city": "Chernivtsi",
    "country": "UA",
    "lat": 48.2721,
    "lng": 25.8238,
    "relay": "https://box-hetzner-helsinki.macula.io:4433",
    "site_type": "family"
  },
  {
    "name": "kropyvny-cafe-hub-296",
    "city": "Kropyvnytskyi",
    "country": "UA",
    "lat": 48.5729,
    "lng": 32.2423,
    "relay": "https://box-hetzner-helsinki.macula.io:4433",
    "site_type": "business"
  },
  {
    "name": "the-boyko-297",
    "city": "Nikopol",
    "country": "UA",
    "lat": 47.7215,
    "lng": 34.4655,
    "relay": "https://box-hetzner-helsinki.macula.io:4433",
    "site_type": "family"
  },
  {
    "name": "the-moroz-298",
    "city": "Melitopol",
    "country": "UA",
    "lat": 47.0839,
    "lng": 35.5315,
    "relay": "https://box-hetzner-helsinki.macula.io:4433",
    "site_type": "family"
  },
  {
    "name": "severodo-school-pro-299",
    "city": "Severodonetsk",
    "country": "UA",
    "lat": 48.7684,
    "lng": 38.3497,
    "relay": "https://box-hetzner-helsinki.macula.io:4433",
    "site_type": "business"
  },
  {
    "name": "the-smith-300",
    "city": "London",
    "country": "GB",
    "lat": 51.4124,
    "lng": -0.1798,
    "relay": "https://box-hetzner-nuremberg.macula.io:4433",
    "site_type": "family"
  },
  {
    "name": "edinburg-hotel-pro-301",
    "city": "Edinburgh",
    "country": "GB",
    "lat": 55.9433,
    "lng": -3.1483,
    "relay": "https://box-hetzner-nuremberg.macula.io:4433",
    "site_type": "business"
  },
  {
    "name": "the-williams-302",
    "city": "Manchester",
    "country": "GB",
    "lat": 53.5558,
    "lng": -2.1106,
    "relay": "https://box-hetzner-nuremberg.macula.io:4433",
    "site_type": "family"
  },
  {
    "name": "the-brown-303",
    "city": "Birmingham",
    "country": "GB",
    "lat": 52.6462,
    "lng": -2.0664,
    "relay": "https://box-hetzner-nuremberg.macula.io:4433",
    "site_type": "family"
  },
  {
    "name": "glasgow-dentist-hub-304",
    "city": "Glasgow",
    "country": "GB",
    "lat": 56.1092,
    "lng": -4.3358,
    "relay": "https://box-hetzner-nuremberg.macula.io:4433",
    "site_type": "business"
  },
  {
    "name": "the-wilson-305",
    "city": "Leeds",
    "country": "GB",
    "lat": 53.6308,
    "lng": -1.5411,
    "relay": "https://box-hetzner-nuremberg.macula.io:4433",
    "site_type": "family"
  },
  {
    "name": "bristol-studio-hub-306",
    "city": "Bristol",
    "country": "GB",
    "lat": 51.3695,
    "lng": -2.4879,
    "relay": "https://box-hetzner-nuremberg.macula.io:4433",
    "site_type": "business"
  },
  {
    "name": "the-evans-307",
    "city": "Cardiff",
    "country": "GB",
    "lat": 51.4816,
    "lng": -2.9871,
    "relay": "https://box-hetzner-nuremberg.macula.io:4433",
    "site_type": "family"
  },
  {
    "name": "the-thomas-308",
    "city": "Belfast",
    "country": "GB",
    "lat": 54.6823,
    "lng": -6.0461,
    "relay": "https://box-hetzner-nuremberg.macula.io:4433",
    "site_type": "family"
  },
  {
    "name": "dublin-farm-pro-309",
    "city": "Dublin",
    "country": "IE",
    "lat": 53.5198,
    "lng": -6.2843,
    "relay": "https://box-hetzner-nuremberg.macula.io:4433",
    "site_type": "business"
  },
  {
    "name": "the-murphy-310",
    "city": "Cork",
    "country": "IE",
    "lat": 51.6535,
    "lng": -8.4076,
    "relay": "https://box-hetzner-nuremberg.macula.io:4433",
    "site_type": "family"
  },
  {
    "name": "paris-winery-pro-311",
    "city": "Paris",
    "country": "FR",
    "lat": 48.6966,
    "lng": 2.5122,
    "relay": "https://box-hetzner-nuremberg.macula.io:4433",
    "site_type": "business"
  },
  {
    "name": "famille-girard-312",
    "city": "Lyon",
    "country": "FR",
    "lat": 45.689,
    "lng": 4.6877,
    "relay": "https://box-hetzner-nuremberg.macula.io:4433",
    "site_type": "family"
  },
  {
    "name": "famille-bonnet-313",
    "city": "Marseille",
    "country": "FR",
    "lat": 43.3065,
    "lng": 5.3138,
    "relay": "https://box-hetzner-nuremberg.macula.io:4433",
    "site_type": "family"
  },
  {
    "name": "toulouse-forge-hub-314",
    "city": "Toulouse",
    "country": "FR",
    "lat": 43.6997,
    "lng": 1.4802,
    "relay": "https://box-hetzner-nuremberg.macula.io:4433",
    "site_type": "business"
  },
  {
    "name": "famille-lambert-315",
    "city": "Nice",
    "country": "FR",
    "lat": 43.8902,
    "lng": 7.39,
    "relay": "https://box-hetzner-nuremberg.macula.io:4433",
    "site_type": "family"
  },
  {
    "name": "nantes-digital-hub-316",
    "city": "Nantes",
    "country": "FR",
    "lat": 46.9834,
    "lng": -1.7336,
    "relay": "https://box-hetzner-nuremberg.macula.io:4433",
    "site_type": "business"
  },
  {
    "name": "famille-martin-317",
    "city": "Strasbourg",
    "country": "FR",
    "lat": 48.4234,
    "lng": 7.6641,
    "relay": "https://box-hetzner-nuremberg.macula.io:4433",
    "site_type": "family"
  },
  {
    "name": "famille-bernard-318",
    "city": "Bordeaux",
    "country": "FR",
    "lat": 44.7728,
    "lng": -0.5752,
    "relay": "https://box-hetzner-nuremberg.macula.io:4433",
    "site_type": "family"
  },
  {
    "name": "lille-cyber-pro-319",
    "city": "Lille",
    "country": "FR",
    "lat": 50.6492,
    "lng": 3.1533,
    "relay": "https://box-hetzner-nuremberg.macula.io:4433",
    "site_type": "business"
  },
  {
    "name": "de-janssen-320",
    "city": "Brussels",
    "country": "BE",
    "lat": 50.9553,
    "lng": 4.5397,
    "relay": "https://box-hetzner-nuremberg.macula.io:4433",
    "site_type": "family"
  },
  {
    "name": "antwerp-app-pro-321",
    "city": "Antwerp",
    "country": "BE",
    "lat": 51.4094,
    "lng": 4.2825,
    "relay": "https://box-hetzner-nuremberg.macula.io:4433",
    "site_type": "business"
  },
  {
    "name": "de-jacobs-322",
    "city": "Ghent",
    "country": "BE",
    "lat": 50.8293,
    "lng": 3.6894,
    "relay": "https://box-hetzner-nuremberg.macula.io:4433",
    "site_type": "family"
  },
  {
    "name": "de-willems-323",
    "city": "Liege",
    "country": "BE",
    "lat": 50.4892,
    "lng": 5.6437,
    "relay": "https://box-hetzner-nuremberg.macula.io:4433",
    "site_type": "family"
  },
  {
    "name": "charlero-bio-hub-324",
    "city": "Charleroi",
    "country": "BE",
    "lat": 50.3558,
    "lng": 4.6006,
    "relay": "https://box-hetzner-nuremberg.macula.io:4433",
    "site_type": "business"
  },
  {
    "name": "van-smit-325",
    "city": "Amsterdam",
    "country": "NL",
    "lat": 52.3976,
    "lng": 4.7521,
    "relay": "https://box-hetzner-nuremberg.macula.io:4433",
    "site_type": "family"
  },
  {
    "name": "rotterda-green-hub-326",
    "city": "Rotterdam",
    "country": "NL",
    "lat": 52.0394,
    "lng": 4.4177,
    "relay": "https://box-hetzner-nuremberg.macula.io:4433",
    "site_type": "business"
  },
  {
    "name": "van-mulder-327",
    "city": "Utrecht",
    "country": "NL",
    "lat": 52.2907,
    "lng": 5.1534,
    "relay": "https://box-hetzner-nuremberg.macula.io:4433",
    "site_type": "family"
  },
  {
    "name": "van-de-jong-328",
    "city": "Eindhoven",
    "country": "NL",
    "lat": 51.2266,
    "lng": 5.5937,
    "relay": "https://box-hetzner-nuremberg.macula.io:4433",
    "site_type": "family"
  },
  {
    "name": "groninge-transport-pro-329",
    "city": "Groningen",
    "country": "NL",
    "lat": 53.0894,
    "lng": 6.3825,
    "relay": "https://box-hetzner-nuremberg.macula.io:4433",
    "site_type": "business"
  },
  {
    "name": "van-de-vries-330",
    "city": "Den Haag",
    "country": "NL",
    "lat": 52.0255,
    "lng": 4.2087,
    "relay": "https://box-hetzner-nuremberg.macula.io:4433",
    "site_type": "family"
  },
  {
    "name": "luxembou-freight-pro-331",
    "city": "Luxembourg",
    "country": "LU",
    "lat": 49.6517,
    "lng": 6.13,
    "relay": "https://box-hetzner-nuremberg.macula.io:4433",
    "site_type": "business"
  },
  {
    "name": "familie-weber-332",
    "city": "Berlin",
    "country": "DE",
    "lat": 52.645,
    "lng": 13.497,
    "relay": "https://box-hetzner-nuremberg.macula.io:4433",
    "site_type": "family"
  },
  {
    "name": "familie-wagner-333",
    "city": "Munich",
    "country": "DE",
    "lat": 48.3451,
    "lng": 11.766,
    "relay": "https://box-hetzner-nuremberg.macula.io:4433",
    "site_type": "family"
  },
  {
    "name": "hamburg-radio-hub-334",
    "city": "Hamburg",
    "country": "DE",
    "lat": 53.3461,
    "lng": 9.8697,
    "relay": "https://box-hetzner-nuremberg.macula.io:4433",
    "site_type": "business"
  },
  {
    "name": "familie-hoffmann-335",
    "city": "Frankfurt",
    "country": "DE",
    "lat": 49.9909,
    "lng": 8.6501,
    "relay": "https://box-hetzner-nuremberg.macula.io:4433",
    "site_type": "family"
  },
  {
    "name": "cologne-legal-hub-336",
    "city": "Cologne",
    "country": "DE",
    "lat": 50.9025,
    "lng": 7.0203,
    "relay": "https://box-hetzner-nuremberg.macula.io:4433",
    "site_type": "business"
  },
  {
    "name": "familie-mueller-337",
    "city": "Stuttgart",
    "country": "DE",
    "lat": 48.8258,
    "lng": 9.3349,
    "relay": "https://box-hetzner-nuremberg.macula.io:4433",
    "site_type": "family"
  },
  {
    "name": "familie-schmidt-338",
    "city": "Dusseldorf",
    "country": "DE",
    "lat": 51.3627,
    "lng": 6.6175,
    "relay": "https://box-hetzner-nuremberg.macula.io:4433",
    "site_type": "family"
  },
  {
    "name": "leipzig-tax-pro-339",
    "city": "Leipzig",
    "country": "DE",
    "lat": 51.5597,
    "lng": 12.3091,
    "relay": "https://box-hetzner-nuremberg.macula.io:4433",
    "site_type": "business"
  },
  {
    "name": "familie-fischer-340",
    "city": "Dresden",
    "country": "DE",
    "lat": 50.8554,
    "lng": 13.7653,
    "relay": "https://box-hetzner-nuremberg.macula.io:4433",
    "site_type": "family"
  },
  {
    "name": "nurember-arch-pro-341",
    "city": "Nuremberg",
    "country": "DE",
    "lat": 49.3421,
    "lng": 11.1967,
    "relay": "https://box-hetzner-nuremberg.macula.io:4433",
    "site_type": "business"
  },
  {
    "name": "the-huber-342",
    "city": "Zurich",
    "country": "CH",
    "lat": 47.3519,
    "lng": 8.3537,
    "relay": "https://box-hetzner-nuremberg.macula.io:4433",
    "site_type": "family"
  },
  {
    "name": "the-schneider-343",
    "city": "Geneva",
    "country": "CH",
    "lat": 46.2644,
    "lng": 6.0472,
    "relay": "https://box-hetzner-nuremberg.macula.io:4433",
    "site_type": "family"
  },
  {
    "name": "bern-food-hub-344",
    "city": "Bern",
    "country": "CH",
    "lat": 47.093,
    "lng": 7.4434,
    "relay": "https://box-hetzner-nuremberg.macula.io:4433",
    "site_type": "business"
  },
  {
    "name": "the-berger-345",
    "city": "Vienna",
    "country": "AT",
    "lat": 48.4382,
    "lng": 16.4618,
    "relay": "https://box-hetzner-nuremberg.macula.io:4433",
    "site_type": "family"
  },
  {
    "name": "graz-organic-hub-346",
    "city": "Graz",
    "country": "AT",
    "lat": 46.8857,
    "lng": 15.6195,
    "relay": "https://box-hetzner-nuremberg.macula.io:4433",
    "site_type": "business"
  },
  {
    "name": "the-moser-347",
    "city": "Salzburg",
    "country": "AT",
    "lat": 47.7095,
    "lng": 12.927,
    "relay": "https://box-hetzner-nuremberg.macula.io:4433",
    "site_type": "family"
  },
  {
    "name": "casa-lopez-348",
    "city": "Madrid",
    "country": "ES",
    "lat": 40.4018,
    "lng": -3.7398,
    "relay": "https://box-hetzner-nuremberg.macula.io:4433",
    "site_type": "family"
  },
  {
    "name": "barcelon-cafe-pro-349",
    "city": "Barcelona",
    "country": "ES",
    "lat": 41.4551,
    "lng": 2.2294,
    "relay": "https://box-hetzner-nuremberg.macula.io:4433",
    "site_type": "business"
  },
  {
    "name": "casa-rodriguez-350",
    "city": "Valencia",
    "country": "ES",
    "lat": 39.6249,
    "lng": -0.2283,
    "relay": "https://box-hetzner-nuremberg.macula.io:4433",
    "site_type": "family"
  },
  {
    "name": "seville-clinic-pro-351",
    "city": "Seville",
    "country": "ES",
    "lat": 37.6291,
    "lng": -6.1445,
    "relay": "https://box-hetzner-nuremberg.macula.io:4433",
    "site_type": "business"
  },
  {
    "name": "casa-sanchez-352",
    "city": "Bilbao",
    "country": "ES",
    "lat": 43.088,
    "lng": -3.003,
    "relay": "https://box-hetzner-nuremberg.macula.io:4433",
    "site_type": "family"
  },
  {
    "name": "casa-perez-353",
    "city": "Malaga",
    "country": "ES",
    "lat": 36.6313,
    "lng": -4.3974,
    "relay": "https://box-hetzner-nuremberg.macula.io:4433",
    "site_type": "family"
  },
  {
    "name": "lisbon-hotel-hub-354",
    "city": "Lisbon",
    "country": "PT",
    "lat": 38.7173,
    "lng": -9.0233,
    "relay": "https://box-hetzner-nuremberg.macula.io:4433",
    "site_type": "business"
  },
  {
    "name": "casa-silva-355",
    "city": "Porto",
    "country": "PT",
    "lat": 41.2379,
    "lng": -8.8211,
    "relay": "https://box-hetzner-nuremberg.macula.io:4433",
    "site_type": "family"
  },
  {
    "name": "rome-florist-hub-356",
    "city": "Rome",
    "country": "IT",
    "lat": 42.0678,
    "lng": 12.3964,
    "relay": "https://box-hetzner-nuremberg.macula.io:4433",
    "site_type": "business"
  },
  {
    "name": "casa-ricci-357",
    "city": "Milan",
    "country": "IT",
    "lat": 45.2142,
    "lng": 9.182,
    "relay": "https://box-hetzner-nuremberg.macula.io:4433",
    "site_type": "family"
  },
  {
    "name": "casa-marino-358",
    "city": "Naples",
    "country": "IT",
    "lat": 40.6868,
    "lng": 14.3521,
    "relay": "https://box-hetzner-nuremberg.macula.io:4433",
    "site_type": "family"
  },
  {
    "name": "turin-studio-pro-359",
    "city": "Turin",
    "country": "IT",
    "lat": 44.9903,
    "lng": 7.8629,
    "relay": "https://box-hetzner-nuremberg.macula.io:4433",
    "site_type": "business"
  },
  {
    "name": "casa-rossi-360",
    "city": "Florence",
    "country": "IT",
    "lat": 43.7746,
    "lng": 11.1238,
    "relay": "https://box-hetzner-nuremberg.macula.io:4433",
    "site_type": "family"
  },
  {
    "name": "venice-lab-pro-361",
    "city": "Venice",
    "country": "IT",
    "lat": 45.5308,
    "lng": 12.2755,
    "relay": "https://box-hetzner-nuremberg.macula.io:4433",
    "site_type": "business"
  },
  {
    "name": "casa-ferrari-362",
    "city": "Palermo",
    "country": "IT",
    "lat": 38.2907,
    "lng": 13.4135,
    "relay": "https://box-hetzner-nuremberg.macula.io:4433",
    "site_type": "family"
  },
  {
    "name": "the-novak-363",
    "city": "Zagreb",
    "country": "HR",
    "lat": 45.575,
    "lng": 16.1259,
    "relay": "https://box-hetzner-nuremberg.macula.io:4433",
    "site_type": "family"
  },
  {
    "name": "ljubljan-winery-hub-364",
    "city": "Ljubljana",
    "country": "SI",
    "lat": 45.9019,
    "lng": 14.3418,
    "relay": "https://box-hetzner-nuremberg.macula.io:4433",
    "site_type": "business"
  },
  {
    "name": "the-jovanovic-365",
    "city": "Belgrade",
    "country": "RS",
    "lat": 44.7166,
    "lng": 20.3769,
    "relay": "https://box-hetzner-nuremberg.macula.io:4433",
    "site_type": "family"
  },
  {
    "name": "sarajevo-workshop-hub-366",
    "city": "Sarajevo",
    "country": "BA",
    "lat": 43.8713,
    "lng": 18.4331,
    "relay": "https://box-hetzner-nuremberg.macula.io:4433",
    "site_type": "business"
  },
  {
    "name": "the-popovic-367",
    "city": "Podgorica",
    "country": "ME",
    "lat": 42.5304,
    "lng": 19.3714,
    "relay": "https://box-hetzner-nuremberg.macula.io:4433",
    "site_type": "family"
  },
  {
    "name": "the-shehu-368",
    "city": "Tirana",
    "country": "AL",
    "lat": 41.5125,
    "lng": 19.6227,
    "relay": "https://box-hetzner-nuremberg.macula.io:4433",
    "site_type": "family"
  },
  {
    "name": "skopje-digital-pro-369",
    "city": "Skopje",
    "country": "MK",
    "lat": 41.7673,
    "lng": 21.324,
    "relay": "https://box-hetzner-nuremberg.macula.io:4433",
    "site_type": "business"
  },
  {
    "name": "the-borg-370",
    "city": "Valletta",
    "country": "MT",
    "lat": 35.7539,
    "lng": 14.5026,
    "relay": "https://box-hetzner-nuremberg.macula.io:4433",
    "site_type": "family"
  },
  {
    "name": "nicosia-data-pro-371",
    "city": "Nicosia",
    "country": "CY",
    "lat": 35.1256,
    "lng": 33.4623,
    "relay": "https://box-hetzner-nuremberg.macula.io:4433",
    "site_type": "business"
  },
  {
    "name": "the-gudmundsson-372",
    "city": "Reykjavik",
    "country": "IS",
    "lat": 64.1716,
    "lng": -21.7706,
    "relay": "https://box-hetzner-nuremberg.macula.io:4433",
    "site_type": "family"
  },
  {
    "name": "casa-esposito-373",
    "city": "Bari",
    "country": "IT",
    "lat": 41.2271,
    "lng": 16.7359,
    "relay": "https://box-hetzner-nuremberg.macula.io:4433",
    "site_type": "family"
  },
  {
    "name": "athens-app-hub-374",
    "city": "Athens",
    "country": "GR",
    "lat": 38.1788,
    "lng": 23.6835,
    "relay": "https://box-hetzner-nuremberg.macula.io:4433",
    "site_type": "business"
  },
  {
    "name": "the-nieminen-375",
    "city": "Helsinki",
    "country": "FI",
    "lat": 59.9499,
    "lng": 24.9864,
    "relay": "https://box-hetzner-helsinki.macula.io:4433",
    "site_type": "family"
  },
  {
    "name": "tampere-wind-hub-376",
    "city": "Tampere",
    "country": "FI",
    "lat": 61.3628,
    "lng": 23.901,
    "relay": "https://box-hetzner-helsinki.macula.io:4433",
    "site_type": "business"
  },
  {
    "name": "the-hamalainen-377",
    "city": "Turku",
    "country": "FI",
    "lat": 60.4018,
    "lng": 22.0986,
    "relay": "https://box-hetzner-helsinki.macula.io:4433",
    "site_type": "family"
  },
  {
    "name": "the-laine-378",
    "city": "Oulu",
    "country": "FI",
    "lat": 65.0471,
    "lng": 25.3891,
    "relay": "https://box-hetzner-helsinki.macula.io:4433",
    "site_type": "family"
  },
  {
    "name": "stockhol-green-pro-379",
    "city": "Stockholm",
    "country": "SE",
    "lat": 59.4493,
    "lng": 18.0846,
    "relay": "https://box-hetzner-helsinki.macula.io:4433",
    "site_type": "business"
  },
  {
    "name": "the-johansson-380",
    "city": "Gothenburg",
    "country": "SE",
    "lat": 57.9139,
    "lng": 12.0826,
    "relay": "https://box-hetzner-helsinki.macula.io:4433",
    "site_type": "family"
  },
  {
    "name": "malmo-logistics-pro-381",
    "city": "Malmo",
    "country": "SE",
    "lat": 55.395,
    "lng": 12.8038,
    "relay": "https://box-hetzner-helsinki.macula.io:4433",
    "site_type": "business"
  },
  {
    "name": "the-karlsson-382",
    "city": "Uppsala",
    "country": "SE",
    "lat": 59.7336,
    "lng": 17.5309,
    "relay": "https://box-hetzner-helsinki.macula.io:4433",
    "site_type": "family"
  },
  {
    "name": "the-larsen-383",
    "city": "Oslo",
    "country": "NO",
    "lat": 59.8739,
    "lng": 10.7362,
    "relay": "https://box-hetzner-helsinki.macula.io:4433",
    "site_type": "family"
  },
  {
    "name": "bergen-freight-hub-384",
    "city": "Bergen",
    "country": "NO",
    "lat": 60.4363,
    "lng": 5.3981,
    "relay": "https://box-hetzner-helsinki.macula.io:4433",
    "site_type": "business"
  },
  {
    "name": "the-pedersen-385",
    "city": "Trondheim",
    "country": "NO",
    "lat": 63.5605,
    "lng": 10.5631,
    "relay": "https://box-hetzner-helsinki.macula.io:4433",
    "site_type": "family"
  },
  {
    "name": "copenhag-press-hub-386",
    "city": "Copenhagen",
    "country": "DK",
    "lat": 55.8911,
    "lng": 12.4283,
    "relay": "https://box-hetzner-helsinki.macula.io:4433",
    "site_type": "business"
  },
  {
    "name": "the-sorensen-387",
    "city": "Aarhus",
    "country": "DK",
    "lat": 55.9629,
    "lng": 10.1559,
    "relay": "https://box-hetzner-helsinki.macula.io:4433",
    "site_type": "family"
  },
  {
    "name": "the-koppel-388",
    "city": "Tallinn",
    "country": "EE",
    "lat": 59.322,
    "lng": 24.7976,
    "relay": "https://box-hetzner-helsinki.macula.io:4433",
    "site_type": "family"
  },
  {
    "name": "tartu-legal-pro-389",
    "city": "Tartu",
    "country": "EE",
    "lat": 58.348,
    "lng": 26.865,
    "relay": "https://box-hetzner-helsinki.macula.io:4433",
    "site_type": "business"
  },
  {
    "name": "the-kalns-390",
    "city": "Riga",
    "country": "LV",
    "lat": 57.0046,
    "lng": 23.9332,
    "relay": "https://box-hetzner-helsinki.macula.io:4433",
    "site_type": "family"
  },
  {
    "name": "daugavpi-audit-pro-391",
    "city": "Daugavpils",
    "country": "LV",
    "lat": 56.0149,
    "lng": 26.4556,
    "relay": "https://box-hetzner-helsinki.macula.io:4433",
    "site_type": "business"
  },
  {
    "name": "the-butkus-392",
    "city": "Vilnius",
    "country": "LT",
    "lat": 54.9122,
    "lng": 25.2917,
    "relay": "https://box-hetzner-helsinki.macula.io:4433",
    "site_type": "family"
  },
  {
    "name": "the-paulauskas-393",
    "city": "Kaunas",
    "country": "LT",
    "lat": 54.7085,
    "lng": 24.0076,
    "relay": "https://box-hetzner-helsinki.macula.io:4433",
    "site_type": "family"
  },
  {
    "name": "klaipeda-arch-hub-394",
    "city": "Klaipeda",
    "country": "LT",
    "lat": 55.5983,
    "lng": 21.3403,
    "relay": "https://box-hetzner-helsinki.macula.io:4433",
    "site_type": "business"
  },
  {
    "name": "the-wozniak-395",
    "city": "Warsaw",
    "country": "PL",
    "lat": 52.2097,
    "lng": 20.9002,
    "relay": "https://box-hetzner-helsinki.macula.io:4433",
    "site_type": "family"
  },
  {
    "name": "krakow-construct-hub-396",
    "city": "Krakow",
    "country": "PL",
    "lat": 50.1297,
    "lng": 19.925,
    "relay": "https://box-hetzner-helsinki.macula.io:4433",
    "site_type": "business"
  },
  {
    "name": "the-kowalski-397",
    "city": "Gdansk",
    "country": "PL",
    "lat": 54.502,
    "lng": 18.7186,
    "relay": "https://box-hetzner-helsinki.macula.io:4433",
    "site_type": "family"
  },
  {
    "name": "the-wisniewski-398",
    "city": "Wroclaw",
    "country": "PL",
    "lat": 51.3429,
    "lng": 17.2025,
    "relay": "https://box-hetzner-helsinki.macula.io:4433",
    "site_type": "family"
  },
  {
    "name": "poznan-organic-pro-399",
    "city": "Poznan",
    "country": "PL",
    "lat": 52.2264,
    "lng": 16.7812,
    "relay": "https://box-hetzner-helsinki.macula.io:4433",
    "site_type": "business"
  },
  {
    "name": "the-kaminski-400",
    "city": "Lodz",
    "country": "PL",
    "lat": 51.6642,
    "lng": 19.404,
    "relay": "https://box-hetzner-helsinki.macula.io:4433",
    "site_type": "family"
  },
  {
    "name": "szczecin-bakery-pro-401",
    "city": "Szczecin",
    "country": "PL",
    "lat": 53.4185,
    "lng": 14.5928,
    "relay": "https://box-hetzner-helsinki.macula.io:4433",
    "site_type": "business"
  },
  {
    "name": "the-zielinski-402",
    "city": "Lublin",
    "country": "PL",
    "lat": 51.3215,
    "lng": 22.7004,
    "relay": "https://box-hetzner-helsinki.macula.io:4433",
    "site_type": "family"
  },
  {
    "name": "the-wozniak-403",
    "city": "Katowice",
    "country": "PL",
    "lat": 50.4249,
    "lng": 18.8478,
    "relay": "https://box-hetzner-helsinki.macula.io:4433",
    "site_type": "family"
  },
  {
    "name": "rzeszow-clinic-hub-404",
    "city": "Rzeszow",
    "country": "PL",
    "lat": 50.2862,
    "lng": 21.9151,
    "relay": "https://box-hetzner-helsinki.macula.io:4433",
    "site_type": "business"
  },
  {
    "name": "the-prochazka-405",
    "city": "Prague",
    "country": "CZ",
    "lat": 49.9055,
    "lng": 14.4458,
    "relay": "https://box-hetzner-helsinki.macula.io:4433",
    "site_type": "family"
  },
  {
    "name": "brno-gym-hub-406",
    "city": "Brno",
    "country": "CZ",
    "lat": 49.1101,
    "lng": 16.7068,
    "relay": "https://box-hetzner-helsinki.macula.io:4433",
    "site_type": "business"
  },
  {
    "name": "the-toth-407",
    "city": "Bratislava",
    "country": "SK",
    "lat": 48.1486,
    "lng": 17.2997,
    "relay": "https://box-hetzner-helsinki.macula.io:4433",
    "site_type": "family"
  },
  {
    "name": "the-nagy-408",
    "city": "Kosice",
    "country": "SK",
    "lat": 48.8014,
    "lng": 21.1451,
    "relay": "https://box-hetzner-helsinki.macula.io:4433",
    "site_type": "family"
  },
  {
    "name": "budapest-florist-pro-409",
    "city": "Budapest",
    "country": "HU",
    "lat": 47.6679,
    "lng": 19.0162,
    "relay": "https://box-hetzner-helsinki.macula.io:4433",
    "site_type": "business"
  },
  {
    "name": "the-nagy-410",
    "city": "Debrecen",
    "country": "HU",
    "lat": 47.2866,
    "lng": 21.6953,
    "relay": "https://box-hetzner-helsinki.macula.io:4433",
    "site_type": "family"
  },
  {
    "name": "buchares-vet-pro-411",
    "city": "Bucharest",
    "country": "RO",
    "lat": 44.2668,
    "lng": 26.2625,
    "relay": "https://box-hetzner-helsinki.macula.io:4433",
    "site_type": "business"
  },
  {
    "name": "the-stan-412",
    "city": "Cluj-Napoca",
    "country": "RO",
    "lat": 46.6962,
    "lng": 23.4756,
    "relay": "https://box-hetzner-helsinki.macula.io:4433",
    "site_type": "family"
  },
  {
    "name": "the-dumitru-413",
    "city": "Timisoara",
    "country": "RO",
    "lat": 45.7589,
    "lng": 21.1527,
    "relay": "https://box-hetzner-helsinki.macula.io:4433",
    "site_type": "family"
  },
  {
    "name": "iasi-lab-hub-414",
    "city": "Iasi",
    "country": "RO",
    "lat": 47.2535,
    "lng": 27.6374,
    "relay": "https://box-hetzner-helsinki.macula.io:4433",
    "site_type": "business"
  },
  {
    "name": "the-stoica-415",
    "city": "Constanta",
    "country": "RO",
    "lat": 44.3398,
    "lng": 28.7628,
    "relay": "https://box-hetzner-helsinki.macula.io:4433",
    "site_type": "family"
  },
  {
    "name": "brasov-brewery-hub-416",
    "city": "Brasov",
    "country": "RO",
    "lat": 45.4077,
    "lng": 25.4087,
    "relay": "https://box-hetzner-helsinki.macula.io:4433",
    "site_type": "business"
  },
  {
    "name": "the-todorov-417",
    "city": "Sofia",
    "country": "BG",
    "lat": 42.5477,
    "lng": 23.2339,
    "relay": "https://box-hetzner-helsinki.macula.io:4433",
    "site_type": "family"
  },
  {
    "name": "the-stoyanov-418",
    "city": "Plovdiv",
    "country": "BG",
    "lat": 42.0704,
    "lng": 24.7493,
    "relay": "https://box-hetzner-helsinki.macula.io:4433",
    "site_type": "family"
  },
  {
    "name": "thessalo-workshop-pro-419",
    "city": "Thessaloniki",
    "country": "GR",
    "lat": 40.6601,
    "lng": 23.0404,
    "relay": "https://box-hetzner-helsinki.macula.io:4433",
    "site_type": "business"
  },
  {
    "name": "the-rusu-420",
    "city": "Chisinau",
    "country": "MD",
    "lat": 47.1155,
    "lng": 29.0518,
    "relay": "https://box-hetzner-helsinki.macula.io:4433",
    "site_type": "family"
  },
  {
    "name": "kyiv-tech-pro-421",
    "city": "Kyiv",
    "country": "UA",
    "lat": 50.6401,
    "lng": 30.4034,
    "relay": "https://box-hetzner-helsinki.macula.io:4433",
    "site_type": "business"
  },
  {
    "name": "the-zinchenko-422",
    "city": "Lviv",
    "country": "UA",
    "lat": 49.6147,
    "lng": 24.0017,
    "relay": "https://box-hetzner-helsinki.macula.io:4433",
    "site_type": "family"
  },
  {
    "name": "the-mazur-423",
    "city": "Odessa",
    "country": "UA",
    "lat": 46.3425,
    "lng": 30.7873,
    "relay": "https://box-hetzner-helsinki.macula.io:4433",
    "site_type": "family"
  },
  {
    "name": "kharkiv-data-hub-424",
    "city": "Kharkiv",
    "country": "UA",
    "lat": 49.9385,
    "lng": 36.3864,
    "relay": "https://box-hetzner-helsinki.macula.io:4433",
    "site_type": "business"
  },
  {
    "name": "the-bondarenko-425",
    "city": "Dnipro",
    "country": "UA",
    "lat": 48.4947,
    "lng": 34.8942,
    "relay": "https://box-hetzner-helsinki.macula.io:4433",
    "site_type": "family"
  },
  {
    "name": "zaporizh-web-hub-426",
    "city": "Zaporizhzhia",
    "country": "UA",
    "lat": 47.9538,
    "lng": 35.0796,
    "relay": "https://box-hetzner-helsinki.macula.io:4433",
    "site_type": "business"
  },
  {
    "name": "the-tkachenko-427",
    "city": "Vinnytsia",
    "country": "UA",
    "lat": 49.4331,
    "lng": 28.5002,
    "relay": "https://box-hetzner-helsinki.macula.io:4433",
    "site_type": "family"
  },
  {
    "name": "the-melnyk-428",
    "city": "Poltava",
    "country": "UA",
    "lat": 49.3733,
    "lng": 34.6754,
    "relay": "https://box-hetzner-helsinki.macula.io:4433",
    "site_type": "family"
  },
  {
    "name": "chernihi-wind-pro-429",
    "city": "Chernihiv",
    "country": "UA",
    "lat": 51.3682,
    "lng": 31.1053,
    "relay": "https://box-hetzner-helsinki.macula.io:4433",
    "site_type": "business"
  },
  {
    "name": "the-moroz-430",
    "city": "Sumy",
    "country": "UA",
    "lat": 50.8627,
    "lng": 34.7061,
    "relay": "https://box-hetzner-helsinki.macula.io:4433",
    "site_type": "family"
  },
  {
    "name": "zhytomyr-eco-pro-431",
    "city": "Zhytomyr",
    "country": "UA",
    "lat": 50.2947,
    "lng": 28.6587,
    "relay": "https://box-hetzner-helsinki.macula.io:4433",
    "site_type": "business"
  },
  {
    "name": "the-savchenko-432",
    "city": "Rivne",
    "country": "UA",
    "lat": 50.7449,
    "lng": 26.3436,
    "relay": "https://box-hetzner-helsinki.macula.io:4433",
    "site_type": "family"
  },
  {
    "name": "the-marchenko-433",
    "city": "Ternopil",
    "country": "UA",
    "lat": 49.7635,
    "lng": 25.7788,
    "relay": "https://box-hetzner-helsinki.macula.io:4433",
    "site_type": "family"
  },
  {
    "name": "cherkasy-logistics-hub-434",
    "city": "Cherkasy",
    "country": "UA",
    "lat": 49.2394,
    "lng": 31.9358,
    "relay": "https://box-hetzner-helsinki.macula.io:4433",
    "site_type": "business"
  },
  {
    "name": "the-petrenko-435",
    "city": "Mykolaiv",
    "country": "UA",
    "lat": 46.855,
    "lng": 31.9626,
    "relay": "https://box-hetzner-helsinki.macula.io:4433",
    "site_type": "family"
  },
  {
    "name": "kherson-express-hub-436",
    "city": "Kherson",
    "country": "UA",
    "lat": 46.6004,
    "lng": 32.6769,
    "relay": "https://box-hetzner-helsinki.macula.io:4433",
    "site_type": "business"
  },
  {
    "name": "the-oliynyk-437",
    "city": "Donetsk",
    "country": "UA",
    "lat": 48.0659,
    "lng": 37.9549,
    "relay": "https://box-hetzner-helsinki.macula.io:4433",
    "site_type": "family"
  },
  {
    "name": "the-polishchuk-438",
    "city": "Luhansk",
    "country": "UA",
    "lat": 48.709,
    "lng": 39.1518,
    "relay": "https://box-hetzner-helsinki.macula.io:4433",
    "site_type": "family"
  },
  {
    "name": "mariupol-press-pro-439",
    "city": "Mariupol",
    "country": "UA",
    "lat": 47.3158,
    "lng": 37.4854,
    "relay": "https://box-hetzner-helsinki.macula.io:4433",
    "site_type": "business"
  },
  {
    "name": "the-yarosh-440",
    "city": "Kramatorsk",
    "country": "UA",
    "lat": 48.5414,
    "lng": 37.5838,
    "relay": "https://box-hetzner-helsinki.macula.io:4433",
    "site_type": "family"
  },
  {
    "name": "ivano-fr-print-pro-441",
    "city": "Ivano-Frankivsk",
    "country": "UA",
    "lat": 48.8126,
    "lng": 24.8311,
    "relay": "https://box-hetzner-helsinki.macula.io:4433",
    "site_type": "business"
  },
  {
    "name": "the-tymoshenko-442",
    "city": "Uzhhorod",
    "country": "UA",
    "lat": 48.5958,
    "lng": 22.0999,
    "relay": "https://box-hetzner-helsinki.macula.io:4433",
    "site_type": "family"
  },
  {
    "name": "the-ponomarenko-443",
    "city": "Lutsk",
    "country": "UA",
    "lat": 50.8072,
    "lng": 25.2294,
    "relay": "https://box-hetzner-helsinki.macula.io:4433",
    "site_type": "family"
  },
  {
    "name": "khmelnyt-audit-hub-444",
    "city": "Khmelnytskyi",
    "country": "UA",
    "lat": 49.568,
    "lng": 26.9831,
    "relay": "https://box-hetzner-helsinki.macula.io:4433",
    "site_type": "business"
  },
  {
    "name": "the-mazur-445",
    "city": "Chernivtsi",
    "country": "UA",
    "lat": 48.5221,
    "lng": 26.0238,
    "relay": "https://box-hetzner-helsinki.macula.io:4433",
    "site_type": "family"
  },
  {
    "name": "kropyvny-design-hub-446",
    "city": "Kropyvnytskyi",
    "country": "UA",
    "lat": 48.3229,
    "lng": 32.4423,
    "relay": "https://box-hetzner-helsinki.macula.io:4433",
    "site_type": "business"
  },
  {
    "name": "the-bondarenko-447",
    "city": "Nikopol",
    "country": "UA",
    "lat": 47.4715,
    "lng": 34.2655,
    "relay": "https://box-hetzner-helsinki.macula.io:4433",
    "site_type": "family"
  },
  {
    "name": "the-kovalenko-448",
    "city": "Melitopol",
    "country": "UA",
    "lat": 46.8339,
    "lng": 35.3315,
    "relay": "https://box-hetzner-helsinki.macula.io:4433",
    "site_type": "family"
  },
  {
    "name": "severodo-construct-pro-449",
    "city": "Severodonetsk",
    "country": "UA",
    "lat": 49.0184,
    "lng": 38.5497,
    "relay": "https://box-hetzner-helsinki.macula.io:4433",
    "site_type": "business"
  },
  {
    "name": "the-walker-450",
    "city": "London",
    "country": "GB",
    "lat": 51.6624,
    "lng": 0.0202,
    "relay": "https://box-hetzner-nuremberg.macula.io:4433",
    "site_type": "family"
  },
  {
    "name": "edinburg-fresh-pro-451",
    "city": "Edinburgh",
    "country": "GB",
    "lat": 56.1933,
    "lng": -3.3483,
    "relay": "https://box-hetzner-nuremberg.macula.io:4433",
    "site_type": "business"
  },
  {
    "name": "the-robinson-452",
    "city": "Manchester",
    "country": "GB",
    "lat": 53.3058,
    "lng": -2.3106,
    "relay": "https://box-hetzner-nuremberg.macula.io:4433",
    "site_type": "family"
  },
  {
    "name": "the-thompson-453",
    "city": "Birmingham",
    "country": "GB",
    "lat": 52.3962,
    "lng": -1.8664,
    "relay": "https://box-hetzner-nuremberg.macula.io:4433",
    "site_type": "family"
  },
  {
    "name": "glasgow-bakery-hub-454",
    "city": "Glasgow",
    "country": "GB",
    "lat": 55.8592,
    "lng": -4.1358,
    "relay": "https://box-hetzner-nuremberg.macula.io:4433",
    "site_type": "business"
  },
  {
    "name": "the-hall-455",
    "city": "Leeds",
    "country": "GB",
    "lat": 53.8808,
    "lng": -1.7411,
    "relay": "https://box-hetzner-nuremberg.macula.io:4433",
    "site_type": "family"
  },
  {
    "name": "bristol-pharmacy-hub-456",
    "city": "Bristol",
    "country": "GB",
    "lat": 51.6195,
    "lng": -2.6879,
    "relay": "https://box-hetzner-nuremberg.macula.io:4433",
    "site_type": "business"
  },
  {
    "name": "the-harris-457",
    "city": "Cardiff",
    "country": "GB",
    "lat": 51.2316,
    "lng": -3.1871,
    "relay": "https://box-hetzner-nuremberg.macula.io:4433",
    "site_type": "family"
  },
  {
    "name": "the-clark-458",
    "city": "Belfast",
    "country": "GB",
    "lat": 54.4323,
    "lng": -5.8461,
    "relay": "https://box-hetzner-nuremberg.macula.io:4433",
    "site_type": "family"
  },
  {
    "name": "dublin-gym-pro-459",
    "city": "Dublin",
    "country": "IE",
    "lat": 53.2698,
    "lng": -6.0843,
    "relay": "https://box-hetzner-nuremberg.macula.io:4433",
    "site_type": "business"
  },
  {
    "name": "the-murphy-460",
    "city": "Cork",
    "country": "IE",
    "lat": 51.9035,
    "lng": -8.6076,
    "relay": "https://box-hetzner-nuremberg.macula.io:4433",
    "site_type": "family"
  },
  {
    "name": "paris-garage-pro-461",
    "city": "Paris",
    "country": "FR",
    "lat": 48.9466,
    "lng": 2.3122,
    "relay": "https://box-hetzner-nuremberg.macula.io:4433",
    "site_type": "business"
  },
  {
    "name": "famille-morel-462",
    "city": "Lyon",
    "country": "FR",
    "lat": 45.939,
    "lng": 4.8877,
    "relay": "https://box-hetzner-nuremberg.macula.io:4433",
    "site_type": "family"
  },
  {
    "name": "famille-fournier-463",
    "city": "Marseille",
    "country": "FR",
    "lat": 43.0565,
    "lng": 5.5138,
    "relay": "https://box-hetzner-nuremberg.macula.io:4433",
    "site_type": "family"
  },
  {
    "name": "toulouse-vet-hub-464",
    "city": "Toulouse",
    "country": "FR",
    "lat": 43.4497,
    "lng": 1.2802,
    "relay": "https://box-hetzner-nuremberg.macula.io:4433",
    "site_type": "business"
  },
  {
    "name": "famille-bonnet-465",
    "city": "Nice",
    "country": "FR",
    "lat": 43.6402,
    "lng": 7.19,
    "relay": "https://box-hetzner-nuremberg.macula.io:4433",
    "site_type": "family"
  },
  {
    "name": "nantes-salon-hub-466",
    "city": "Nantes",
    "country": "FR",
    "lat": 47.2334,
    "lng": -1.5336,
    "relay": "https://box-hetzner-nuremberg.macula.io:4433",
    "site_type": "business"
  },