[
  {
    "name": "wagner-frankfurt",
    "city": "Frankfurt",
    "country": "DE",
    "lat": 49.9509,
    "lng": 8.5021,
    "relay": "https://box-hetzner-nuremberg.macula.io:4433"
  }
,
  {
    "name": "obrien-cologne",
    "city": "Cologne",
    "country": "DE",
    "lat": 50.8575,
    "lng": 6.8403,
    "relay": "https://box-hetzner-nuremberg.macula.io:4433"
  }
,
  {
    "name": "mueller-stuttgart",
    "city": "Stuttgart",
    "country": "DE",
    "lat": 48.7758,
    "lng": 9.1229,
    "relay": "https://box-hetzner-nuremberg.macula.io:4433"
  }
,
  {
    "name": "martin-dusseldorf",
    "city": "Dusseldorf",
    "country": "DE",
    "lat": 51.3077,
    "lng": 6.7735,
    "relay": "https://box-hetzner-nuremberg.macula.io:4433"
  }
,
  {
    "name": "smith-leipzig",
    "city": "Leipzig",
    "country": "DE",
    "lat": 51.4997,
    "lng": 12.4331,
    "relay": "https://box-hetzner-nuremberg.macula.io:4433"
  }
,
  {
    "name": "jansen-dresden",
    "city": "Dresden",
    "country": "DE",
    "lat": 50.8904,
    "lng": 13.8573,
    "relay": "https://box-hetzner-nuremberg.macula.io:4433"
  }
,
  {
    "name": "martinez-nuremberg",
    "city": "Nuremberg",
    "country": "DE",
    "lat": 49.3721,
    "lng": 11.2567,
    "relay": "https://box-hetzner-nuremberg.macula.io:4433"
  }
,
  {
    "name": "ferrari-zurich",
    "city": "Zurich",
    "country": "CH",
    "lat": 47.3769,
    "lng": 8.3617,
    "relay": "https://box-hetzner-nuremberg.macula.io:4433"
  }
,
  {
    "name": "costa-geneva",
    "city": "Geneva",
    "country": "CH",
    "lat": 46.2844,
    "lng": 6.0232,
    "relay": "https://box-hetzner-nuremberg.macula.io:4433"
  }
,
  {
    "name": "steiner-bern",
    "city": "Bern",
    "country": "CH",
    "lat": 47.1080,
    "lng": 7.3874,
    "relay": "https://box-hetzner-nuremberg.macula.io:4433"
  }
,
  {
    "name": "kowalski-vienna",
    "city": "Vienna",
    "country": "AT",
    "lat": 48.0482,
    "lng": 16.3738,
    "relay": "https://box-hetzner-nuremberg.macula.io:4433"
  }
,
  {
    "name": "schmidt-graz",
    "city": "Graz",
    "country": "AT",
    "lat": 46.9907,
    "lng": 15.4995,
    "relay": "https://box-hetzner-nuremberg.macula.io:4433"
  }
,
  {
    "name": "bernard-salzburg",
    "city": "Salzburg",
    "country": "AT",
    "lat": 47.8095,
    "lng": 13.1750,
    "relay": "https://box-hetzner-nuremberg.macula.io:4433"
  }
,
  {
    "name": "jones-madrid",
    "city": "Madrid",
    "country": "ES",
    "lat": 40.4968,
    "lng": -3.5238,
    "relay": "https://box-hetzner-nuremberg.macula.io:4433"
  }
,
  {
    "name": "de-vries-barcelona",
    "city": "Barcelona",
    "country": "ES",
    "lat": 41.5451,
    "lng": 1.9934,
    "relay": "https://box-hetzner-nuremberg.macula.io:4433"
  }
,
  {
    "name": "lopez-valencia",
    "city": "Valencia",
    "country": "ES",
    "lat": 39.3099,
    "lng": -0.4963,
    "relay": "https://box-hetzner-nuremberg.macula.io:4433"
  }
,
  {
    "name": "esposito-seville",
    "city": "Seville",
    "country": "ES",
    "lat": 37.3091,
    "lng": -6.0445,
    "relay": "https://box-hetzner-nuremberg.macula.io:4433"
  }
,
  {
    "name": "pereira-bilbao",
    "city": "Bilbao",
    "country": "ES",
    "lat": 43.2630,
    "lng": -2.9350,
    "relay": "https://box-hetzner-nuremberg.macula.io:4433"
  }
,
  {
    "name": "berger-malaga",
    "city": "Malaga",
    "country": "ES",
    "lat": 36.8013,
    "lng": -4.3614,
    "relay": "https://box-hetzner-nuremberg.macula.io:4433"
  }
,
  {
    "name": "johansson-lisbon",
    "city": "Lisbon",
    "country": "PT",
    "lat": 38.8823,
    "lng": -9.0193,
    "relay": "https://box-hetzner-nuremberg.macula.io:4433"
  }
,
  {
    "name": "schneider-porto",
    "city": "Porto",
    "country": "PT",
    "lat": 40.9979,
    "lng": -8.4491,
    "relay": "https://box-hetzner-nuremberg.macula.io:4433"
  }
,
  {
    "name": "dubois-rome",
    "city": "Rome",
    "country": "IT",
    "lat": 41.8228,
    "lng": 12.3164,
    "relay": "https://box-hetzner-nuremberg.macula.io:4433"
  }
,
  {
    "name": "williams-milan",
    "city": "Milan",
    "country": "IT",
    "lat": 45.4642,
    "lng": 9.0700,
    "relay": "https://box-hetzner-nuremberg.macula.io:4433"
  }
,
  {
    "name": "van-dijk-naples",
    "city": "Naples",
    "country": "IT",
    "lat": 40.9318,
    "lng": 14.2081,
    "relay": "https://box-hetzner-nuremberg.macula.io:4433"
  }
,
  {
    "name": "gonzalez-turin",
    "city": "Turin",
    "country": "IT",
    "lat": 45.2303,
    "lng": 7.6869,
    "relay": "https://box-hetzner-nuremberg.macula.io:4433"
  }
,
  {
    "name": "bianchi-florence",
    "city": "Florence",
    "country": "IT",
    "lat": 43.6096,
    "lng": 11.3158,
    "relay": "https://box-hetzner-nuremberg.macula.io:4433"
  }
,
  {
    "name": "oliveira-venice",
    "city": "Venice",
    "country": "IT",
    "lat": 45.3608,
    "lng": 12.4355,
    "relay": "https://box-hetzner-nuremberg.macula.io:4433"
  }
,
  {
    "name": "murphy-palermo",
    "city": "Palermo",
    "country": "IT",
    "lat": 38.1157,
    "lng": 13.5415,
    "relay": "https://box-hetzner-nuremberg.macula.io:4433"
  }
,
  {
    "name": "andersson-zagreb",
    "city": "Zagreb",
    "country": "HR",
    "lat": 45.8950,
    "lng": 15.8019,
    "relay": "https://box-hetzner-nuremberg.macula.io:4433"
  }
,
  {
    "name": "fischer-ljubljana",
    "city": "Ljubljana",
    "country": "SI",
    "lat": 46.2169,
    "lng": 14.3858,
    "relay": "https://box-hetzner-nuremberg.macula.io:4433"
  }
,
  {
    "name": "toth-belgrade",
    "city": "Belgrade",
    "country": "RS",
    "lat": 44.6266,
    "lng": 20.3889,
    "relay": "https://box-hetzner-nuremberg.macula.io:4433"
  }
,
  {
    "name": "todorov-sarajevo",
    "city": "Sarajevo",
    "country": "BA",
    "lat": 43.7763,
    "lng": 18.4131,
    "relay": "https://box-hetzner-nuremberg.macula.io:4433"
  }
,
  {
    "name": "berzins-podgorica",
    "city": "Podgorica",
    "country": "ME",
    "lat": 42.4304,
    "lng": 19.3194,
    "relay": "https://box-hetzner-nuremberg.macula.io:4433"
  }
,
  {
    "name": "jonaitis-tirana",
    "city": "Tirana",
    "country": "AL",
    "lat": 41.4075,
    "lng": 19.9387,
    "relay": "https://box-hetzner-nuremberg.macula.io:4433"
  }
,
  {
    "name": "ilves-skopje",
    "city": "Skopje",
    "country": "MK",
    "lat": 42.1573,
    "lng": 21.6080,
    "relay": "https://box-hetzner-nuremberg.macula.io:4433"
  }
]
