[
  {
    "name": "devos",
    "city": "Charleroi",
    "country": "BE",
    "lat": 50.39893,
    "lng": 4.43669,
    "relay": "https://relay-be-charleroi.macula.io:4433"
  },
  {
    "name": "epicerie-fine",
    "city": "Brussels",
    "country": "BE",
    "lat": 50.85258,
    "lng": 4.35182,
    "relay": "https://relay-be-brussels.macula.io:4433"
  },
  {
    "name": "tech-flanders",
    "city": "Charleroi",
    "country": "BE",
    "lat": 50.40154,
    "lng": 4.46414,
    "relay": "https://relay-be-charleroi.macula.io:4433"
  },
  {
    "name": "renard",
    "city": "Brussels",
    "country": "BE",
    "lat": 50.8598,
    "lng": 4.33323,
    "relay": "https://relay-be-brussels.macula.io:4433"
  },
  {
    "name": "leemans",
    "city": "Brussels",
    "country": "BE",
    "lat": 50.85504,
    "lng": 4.34036,
    "relay": "https://relay-be-brussels.macula.io:4433"
  },
  {
    "name": "advocaat-stevens",
    "city": "Antwerp",
    "country": "BE",
    "lat": 51.23134,
    "lng": 4.40551,
    "relay": "https://relay-be-antwerp.macula.io:4433"
  },
  {
    "name": "stevens",
    "city": "Kortrijk",
    "country": "BE",
    "lat": 50.83045,
    "lng": 3.27001,
    "relay": "https://relay-be-kortrijk.macula.io:4433"
  },
  {
    "name": "beckers",
    "city": "Leuven",
    "country": "BE",
    "lat": 50.88405,
    "lng": 4.70329,
    "relay": "https://relay-be-leuven.macula.io:4433"
  },
  {
    "name": "wauters",
    "city": "Bruges",
    "country": "BE",
    "lat": 51.22105,
    "lng": 3.21194,
    "relay": "https://relay-be-bruges.macula.io:4433"
  },
  {
    "name": "michiels",
    "city": "Sint-Niklaas",
    "country": "BE",
    "lat": 51.15138,
    "lng": 4.1472,
    "relay": "https://relay-be-sint-niklaas.macula.io:4433"
  },
  {
    "name": "boucherie-dubois",
    "city": "Antwerp",
    "country": "BE",
    "lat": 51.22404,
    "lng": 4.39387,
    "relay": "https://relay-be-antwerp.macula.io:4433"
  },
  {
    "name": "pieters",
    "city": "Bruges",
    "country": "BE",
    "lat": 51.2209,
    "lng": 3.2435,
    "relay": "https://relay-be-bruges.macula.io:4433"
  },
  {
    "name": "geerts",
    "city": "Brussels",
    "country": "BE",
    "lat": 50.84917,
    "lng": 4.37304,
    "relay": "https://relay-be-brussels.macula.io:4433"
  },
  {
    "name": "neural-labs-leuven",
    "city": "Brussels",
    "country": "BE",
    "lat": 50.83877,
    "lng": 4.33942,
    "relay": "https://relay-be-brussels.macula.io:4433"
  },
  {
    "name": "collignon",
    "city": "Ghent",
    "country": "BE",
    "lat": 51.04437,
    "lng": 3.71091,
    "relay": "https://relay-be-ghent.macula.io:4433"
  },
  {
    "name": "garage-vdb",
    "city": "Brussels",
    "country": "BE",
    "lat": 50.86055,
    "lng": 4.34611,
    "relay": "https://relay-be-brussels.macula.io:4433"
  },
  {
    "name": "garage-martin",
    "city": "Antwerp",
    "country": "BE",
    "lat": 51.21773,
    "lng": 4.40436,
    "relay": "https://relay-be-antwerp.macula.io:4433"
  },
  {
    "name": "cafe-de-markt",
    "city": "Bruges",
    "country": "BE",
    "lat": 51.21232,
    "lng": 3.24572,
    "relay": "https://relay-be-bruges.macula.io:4433"
  },
  {
    "name": "brasserie-leopold",
    "city": "Aalst",
    "country": "BE",
    "lat": 50.93908,
    "lng": 4.0465,
    "relay": "https://relay-be-aalst.macula.io:4433"
  },
  {
    "name": "chocolaterie-artisan",
    "city": "Hasselt",
    "country": "BE",
    "lat": 50.92528,
    "lng": 5.34451,
    "relay": "https://relay-be-hasselt.macula.io:4433"
  },
  {
    "name": "servais",
    "city": "Antwerp",
    "country": "BE",
    "lat": 51.21303,
    "lng": 4.41932,
    "relay": "https://relay-be-antwerp.macula.io:4433"
  },
  {
    "name": "wouters",
    "city": "Verviers",
    "country": "BE",
    "lat": 50.58974,
    "lng": 5.85341,
    "relay": "https://relay-be-verviers.macula.io:4433"
  },
  {
    "name": "cools",
    "city": "Ostend",
    "country": "BE",
    "lat": 51.21758,
    "lng": 2.91312,
    "relay": "https://relay-be-ostend.macula.io:4433"
  },
  {
    "name": "marchal",
    "city": "Tournai",
    "country": "BE",
    "lat": 50.60943,
    "lng": 3.37805,
    "relay": "https://relay-be-tournai.macula.io:4433"
  },
  {
    "name": "sels",
    "city": "Mechelen",
    "country": "BE",
    "lat": 51.01917,
    "lng": 4.49514,
    "relay": "https://relay-be-mechelen.macula.io:4433"
  },
  {
    "name": "van-damme",
    "city": "Brussels",
    "country": "BE",
    "lat": 50.83928,
    "lng": 4.34843,
    "relay": "https://relay-be-brussels.macula.io:4433"
  },
  {
    "name": "diamant-exchange",
    "city": "Ghent",
    "country": "BE",
    "lat": 51.04198,
    "lng": 3.71024,
    "relay": "https://relay-be-ghent.macula.io:4433"
  },
  {
    "name": "hermans",
    "city": "Antwerp",
    "country": "BE",
    "lat": 51.22311,
    "lng": 4.39223,
    "relay": "https://relay-be-antwerp.macula.io:4433"
  },
  {
    "name": "apotheek-centraal",
    "city": "Verviers",
    "country": "BE",
    "lat": 50.58673,
    "lng": 5.87186,
    "relay": "https://relay-be-verviers.macula.io:4433"
  },
  {
    "name": "laurent",
    "city": "Hasselt",
    "country": "BE",
    "lat": 50.91745,
    "lng": 5.31929,
    "relay": "https://relay-be-hasselt.macula.io:4433"
  },
  {
    "name": "lemaire",
    "city": "Arlon",
    "country": "BE",
    "lat": 49.69432,
    "lng": 5.8185,
    "relay": "https://relay-be-arlon.macula.io:4433"
  },
  {
    "name": "dams",
    "city": "Dendermonde",
    "country": "BE",
    "lat": 51.02487,
    "lng": 4.10266,
    "relay": "https://relay-be-dendermonde.macula.io:4433"
  },
  {
    "name": "mertens",
    "city": "Leuven",
    "country": "BE",
    "lat": 50.86973,
    "lng": 4.69229,
    "relay": "https://relay-be-leuven.macula.io:4433"
  },
  {
    "name": "nijs",
    "city": "La Louviere",
    "country": "BE",
    "lat": 50.48396,
    "lng": 4.16626,
    "relay": "https://relay-be-la-louviere.macula.io:4433"
  },
  {
    "name": "atelier-simon",
    "city": "Liege",
    "country": "BE",
    "lat": 50.62136,
    "lng": 5.56903,
    "relay": "https://relay-be-liege.macula.io:4433"
  },
  {
    "name": "brouwers",
    "city": "Brussels",
    "country": "BE",
    "lat": 50.84635,
    "lng": 4.35426,
    "relay": "https://relay-be-brussels.macula.io:4433"
  },
  {
    "name": "vandenbulcke",
    "city": "Leuven",
    "country": "BE",
    "lat": 50.89261,
    "lng": 4.71119,
    "relay": "https://relay-be-leuven.macula.io:4433"
  },
  {
    "name": "dubois",
    "city": "Ghent",
    "country": "BE",
    "lat": 51.06415,
    "lng": 3.73788,
    "relay": "https://relay-be-ghent.macula.io:4433"
  },
  {
    "name": "vanhees",
    "city": "Wavre",
    "country": "BE",
    "lat": 50.70697,
    "lng": 4.60756,
    "relay": "https://relay-be-wavre.macula.io:4433"
  },
  {
    "name": "vinothek-somelier",
    "city": "Antwerp",
    "country": "BE",
    "lat": 51.22579,
    "lng": 4.39526,
    "relay": "https://relay-be-antwerp.macula.io:4433"
  },
  {
    "name": "martin",
    "city": "Leuven",
    "country": "BE",
    "lat": 50.88797,
    "lng": 4.71609,
    "relay": "https://relay-be-leuven.macula.io:4433"
  },
  {
    "name": "fietsen-willems",
    "city": "Wavre",
    "country": "BE",
    "lat": 50.70889,
    "lng": 4.59675,
    "relay": "https://relay-be-wavre.macula.io:4433"
  },
  {
    "name": "brasserie-oud-brugge",
    "city": "Arlon",
    "country": "BE",
    "lat": 49.67281,
    "lng": 5.83215,
    "relay": "https://relay-be-arlon.macula.io:4433"
  },
  {
    "name": "thomas",
    "city": "Namur",
    "country": "BE",
    "lat": 50.4599,
    "lng": 4.88544,
    "relay": "https://relay-be-namur.macula.io:4433"
  },
  {
    "name": "elektro-jacobs",
    "city": "Namur",
    "country": "BE",
    "lat": 50.46334,
    "lng": 4.88561,
    "relay": "https://relay-be-namur.macula.io:4433"
  },
  {
    "name": "martens",
    "city": "Ghent",
    "country": "BE",
    "lat": 51.04681,
    "lng": 3.72428,
    "relay": "https://relay-be-ghent.macula.io:4433"
  },
  {
    "name": "cloudnine-tech",
    "city": "Leuven",
    "country": "BE",
    "lat": 50.87516,
    "lng": 4.71611,
    "relay": "https://relay-be-leuven.macula.io:4433"
  },
  {
    "name": "pharmacie-lambert",
    "city": "Turnhout",
    "country": "BE",
    "lat": 51.31653,
    "lng": 4.95452,
    "relay": "https://relay-be-turnhout.macula.io:4433"
  },
  {
    "name": "vandenberghe",
    "city": "Leuven",
    "country": "BE",
    "lat": 50.88465,
    "lng": 4.71522,
    "relay": "https://relay-be-leuven.macula.io:4433"
  },
  {
    "name": "taverne-de-leeuw",
    "city": "Liege",
    "country": "BE",
    "lat": 50.64107,
    "lng": 5.56331,
    "relay": "https://relay-be-liege.macula.io:4433"
  },
  {
    "name": "janssens",
    "city": "Ghent",
    "country": "BE",
    "lat": 51.04561,
    "lng": 3.73729,
    "relay": "https://relay-be-ghent.macula.io:4433"
  },
  {
    "name": "greenpower-namur",
    "city": "Ghent",
    "country": "BE",
    "lat": 51.04182,
    "lng": 3.72155,
    "relay": "https://relay-be-ghent.macula.io:4433"
  },
  {
    "name": "meshworks-bvba",
    "city": "Liege",
    "country": "BE",
    "lat": 50.63538,
    "lng": 5.57176,
    "relay": "https://relay-be-liege.macula.io:4433"
  },
  {
    "name": "logistiek-zeebrugge",
    "city": "Ostend",
    "country": "BE",
    "lat": 51.23849,
    "lng": 2.90331,
    "relay": "https://relay-be-ostend.macula.io:4433"
  },
  {
    "name": "wafel-paradijs",
    "city": "Hasselt",
    "country": "BE",
    "lat": 50.92232,
    "lng": 5.31796,
    "relay": "https://relay-be-hasselt.macula.io:4433"
  },
  {
    "name": "somers",
    "city": "Leuven",
    "country": "BE",
    "lat": 50.86633,
    "lng": 4.71873,
    "relay": "https://relay-be-leuven.macula.io:4433"
  },
  {
    "name": "iot-solutions-gent",
    "city": "Charleroi",
    "country": "BE",
    "lat": 50.41585,
    "lng": 4.46327,
    "relay": "https://relay-be-charleroi.macula.io:4433"
  },
  {
    "name": "frituur-de-hoek",
    "city": "Verviers",
    "country": "BE",
    "lat": 50.59291,
    "lng": 5.85732,
    "relay": "https://relay-be-verviers.macula.io:4433"
  },
  {
    "name": "bakkerij-artisan",
    "city": "Brussels",
    "country": "BE",
    "lat": 50.86243,
    "lng": 4.36971,
    "relay": "https://relay-be-brussels.macula.io:4433"
  },
  {
    "name": "architect-bogaert",
    "city": "Ostend",
    "country": "BE",
    "lat": 51.22037,
    "lng": 2.93492,
    "relay": "https://relay-be-ostend.macula.io:4433"
  },
  {
    "name": "bogaert",
    "city": "Roeselare",
    "country": "BE",
    "lat": 50.95771,
    "lng": 3.12471,
    "relay": "https://relay-be-roeselare.macula.io:4433"
  },
  {
    "name": "gilles",
    "city": "Aalst",
    "country": "BE",
    "lat": 50.93582,
    "lng": 4.03511,
    "relay": "https://relay-be-aalst.macula.io:4433"
  },
  {
    "name": "cybercafe-connect",
    "city": "Bruges",
    "country": "BE",
    "lat": 51.21077,
    "lng": 3.21141,
    "relay": "https://relay-be-bruges.macula.io:4433"
  },
  {
    "name": "bodart",
    "city": "Aalst",
    "country": "BE",
    "lat": 50.9502,
    "lng": 4.04691,
    "relay": "https://relay-be-aalst.macula.io:4433"
  },
  {
    "name": "de-meyer",
    "city": "Antwerp",
    "country": "BE",
    "lat": 51.22252,
    "lng": 4.39391,
    "relay": "https://relay-be-antwerp.macula.io:4433"
  },
  {
    "name": "pauwels",
    "city": "Hasselt",
    "country": "BE",
    "lat": 50.93972,
    "lng": 5.32909,
    "relay": "https://relay-be-hasselt.macula.io:4433"
  },
  {
    "name": "hendrickx",
    "city": "Antwerp",
    "country": "BE",
    "lat": 51.21751,
    "lng": 4.40595,
    "relay": "https://relay-be-antwerp.macula.io:4433"
  },
  {
    "name": "edgecompute-be",
    "city": "Aalst",
    "country": "BE",
    "lat": 50.9335,
    "lng": 4.0368,
    "relay": "https://relay-be-aalst.macula.io:4433"
  },
  {
    "name": "jacobs",
    "city": "Tournai",
    "country": "BE",
    "lat": 50.59806,
    "lng": 3.38696,
    "relay": "https://relay-be-tournai.macula.io:4433"
  },
  {
    "name": "willems",
    "city": "La Louviere",
    "country": "BE",
    "lat": 50.47758,
    "lng": 4.19255,
    "relay": "https://relay-be-la-louviere.macula.io:4433"
  },
  {
    "name": "verhoeven",
    "city": "Ghent",
    "country": "BE",
    "lat": 51.05472,
    "lng": 3.72312,
    "relay": "https://relay-be-ghent.macula.io:4433"
  },
  {
    "name": "renson",
    "city": "Liege",
    "country": "BE",
    "lat": 50.61821,
    "lng": 5.59896,
    "relay": "https://relay-be-liege.macula.io:4433"
  },
  {
    "name": "lambert",
    "city": "Ghent",
    "country": "BE",
    "lat": 51.05897,
    "lng": 3.70556,
    "relay": "https://relay-be-ghent.macula.io:4433"
  },
  {
    "name": "dumont",
    "city": "Antwerp",
    "country": "BE",
    "lat": 51.20987,
    "lng": 4.38292,
    "relay": "https://relay-be-antwerp.macula.io:4433"
  },
  {
    "name": "fromagerie-laurent",
    "city": "Namur",
    "country": "BE",
    "lat": 50.47041,
    "lng": 4.8834,
    "relay": "https://relay-be-namur.macula.io:4433"
  },
  {
    "name": "drukkerij-claes",
    "city": "Namur",
    "country": "BE",
    "lat": 50.46509,
    "lng": 4.87751,
    "relay": "https://relay-be-namur.macula.io:4433"
  },
  {
    "name": "studio-creatief",
    "city": "Antwerp",
    "country": "BE",
    "lat": 51.2253,
    "lng": 4.39749,
    "relay": "https://relay-be-antwerp.macula.io:4433"
  },
  {
    "name": "desmet",
    "city": "Leuven",
    "country": "BE",
    "lat": 50.87288,
    "lng": 4.70718,
    "relay": "https://relay-be-leuven.macula.io:4433"
  },
  {
    "name": "thijs",
    "city": "Brussels",
    "country": "BE",
    "lat": 50.86091,
    "lng": 4.36713,
    "relay": "https://relay-be-brussels.macula.io:4433"
  },
  {
    "name": "buelens",
    "city": "Brussels",
    "country": "BE",
    "lat": 50.85782,
    "lng": 4.33966,
    "relay": "https://relay-be-brussels.macula.io:4433"
  },
  {
    "name": "bernaerts",
    "city": "Wavre",
    "country": "BE",
    "lat": 50.72808,
    "lng": 4.61207,
    "relay": "https://relay-be-wavre.macula.io:4433"
  },
  {
    "name": "pirard",
    "city": "Brussels",
    "country": "BE",
    "lat": 50.85185,
    "lng": 4.36957,
    "relay": "https://relay-be-brussels.macula.io:4433"
  },
  {
    "name": "claes",
    "city": "Antwerp",
    "country": "BE",
    "lat": 51.21822,
    "lng": 4.41551,
    "relay": "https://relay-be-antwerp.macula.io:4433"
  },
  {
    "name": "de-cock",
    "city": "Aalst",
    "country": "BE",
    "lat": 50.93914,
    "lng": 4.04183,
    "relay": "https://relay-be-aalst.macula.io:4433"
  },
  {
    "name": "peeters",
    "city": "Bruges",
    "country": "BE",
    "lat": 51.22146,
    "lng": 3.24159,
    "relay": "https://relay-be-bruges.macula.io:4433"
  },
  {
    "name": "lejeune",
    "city": "Ostend",
    "country": "BE",
    "lat": 51.23391,
    "lng": 2.93682,
    "relay": "https://relay-be-ostend.macula.io:4433"
  },
  {
    "name": "de-graef",
    "city": "Leuven",
    "country": "BE",
    "lat": 50.88873,
    "lng": 4.70255,
    "relay": "https://relay-be-leuven.macula.io:4433"
  },
  {
    "name": "biotech-liege",
    "city": "Antwerp",
    "country": "BE",
    "lat": 51.22599,
    "lng": 4.40141,
    "relay": "https://relay-be-antwerp.macula.io:4433"
  },
  {
    "name": "webdesign-pixel",
    "city": "Ghent",
    "country": "BE",
    "lat": 51.0611,
    "lng": 3.73201,
    "relay": "https://relay-be-ghent.macula.io:4433"
  },
  {
    "name": "patisserie-duchene",
    "city": "Ghent",
    "country": "BE",
    "lat": 51.06148,
    "lng": 3.71832,
    "relay": "https://relay-be-ghent.macula.io:4433"
  },
  {
    "name": "baert",
    "city": "Mons",
    "country": "BE",
    "lat": 50.44715,
    "lng": 3.95405,
    "relay": "https://relay-be-mons.macula.io:4433"
  },
  {
    "name": "vermeersch",
    "city": "Sint-Niklaas",
    "country": "BE",
    "lat": 51.15061,
    "lng": 4.14746,
    "relay": "https://relay-be-sint-niklaas.macula.io:4433"
  },
  {
    "name": "aerts",
    "city": "Bruges",
    "country": "BE",
    "lat": 51.21992,
    "lng": 3.20661,
    "relay": "https://relay-be-bruges.macula.io:4433"
  },
  {
    "name": "cornet",
    "city": "Antwerp",
    "country": "BE",
    "lat": 51.21214,
    "lng": 4.41087,
    "relay": "https://relay-be-antwerp.macula.io:4433"
  },
  {
    "name": "slagerij-peeters",
    "city": "Sint-Niklaas",
    "country": "BE",
    "lat": 51.14867,
    "lng": 4.15363,
    "relay": "https://relay-be-sint-niklaas.macula.io:4433"
  },
  {
    "name": "van-hoeck",
    "city": "Liege",
    "country": "BE",
    "lat": 50.63035,
    "lng": 5.57611,
    "relay": "https://relay-be-liege.macula.io:4433"
  },
  {
    "name": "lammens",
    "city": "Antwerp",
    "country": "BE",
    "lat": 51.2284,
    "lng": 4.39773,
    "relay": "https://relay-be-antwerp.macula.io:4433"
  },
  {
    "name": "de-smedt",
    "city": "Turnhout",
    "country": "BE",
    "lat": 51.32477,
    "lng": 4.95686,
    "relay": "https://relay-be-turnhout.macula.io:4433"
  },
  {
    "name": "immo-trust",
    "city": "Genk",
    "country": "BE",
    "lat": 50.96705,
    "lng": 5.50151,
    "relay": "https://relay-be-genk.macula.io:4433"
  },
  {
    "name": "librairie-mols",
    "city": "Liege",
    "country": "BE",
    "lat": 50.62376,
    "lng": 5.57501,
    "relay": "https://relay-be-liege.macula.io:4433"
  }
]