[
  {
    "name": "devos",
    "city": "Charleroi",
    "country": "BE",
    "lat": 50.48099,
    "lng": 4.48898,
    "relay": "https://relay-be-charleroi.macula.io:4433"
  },
  {
    "name": "epicerie-fine",
    "city": "Brussels",
    "country": "BE",
    "lat": 50.76757,
    "lng": 4.27511,
    "relay": "https://relay-be-brussels.macula.io:4433"
  },
  {
    "name": "tech-flanders",
    "city": "Charleroi",
    "country": "BE",
    "lat": 50.48357,
    "lng": 4.61827,
    "relay": "https://relay-be-charleroi.macula.io:4433"
  },
  {
    "name": "renard",
    "city": "Brussels",
    "country": "BE",
    "lat": 50.87133,
    "lng": 4.30665,
    "relay": "https://relay-be-brussels.macula.io:4433"
  },
  {
    "name": "leemans",
    "city": "Brussels",
    "country": "BE",
    "lat": 50.82062,
    "lng": 4.25915,
    "relay": "https://relay-be-brussels.macula.io:4433"
  },
  {
    "name": "advocaat-stevens",
    "city": "Antwerp",
    "country": "BE",
    "lat": 51.31461,
    "lng": 4.34407,
    "relay": "https://relay-be-antwerp.macula.io:4433"
  },
  {
    "name": "stevens",
    "city": "Kortrijk",
    "country": "BE",
    "lat": 50.73976,
    "lng": 3.17068,
    "relay": "https://relay-be-kortrijk.macula.io:4433"
  },
  {
    "name": "beckers",
    "city": "Leuven",
    "country": "BE",
    "lat": 50.82395,
    "lng": 4.56599,
    "relay": "https://relay-be-leuven.macula.io:4433"
  },
  {
    "name": "wauters",
    "city": "Bruges",
    "country": "BE",
    "lat": 51.26531,
    "lng": 3.18582,
    "relay": "https://relay-be-bruges.macula.io:4433"
  },
  {
    "name": "michiels",
    "city": "Sint-Niklaas",
    "country": "BE",
    "lat": 51.12907,
    "lng": 4.25943,
    "relay": "https://relay-be-sint-niklaas.macula.io:4433"
  },
  {
    "name": "boucherie-dubois",
    "city": "Antwerp",
    "country": "BE",
    "lat": 51.18443,
    "lng": 4.29835,
    "relay": "https://relay-be-antwerp.macula.io:4433"
  },
  {
    "name": "pieters",
    "city": "Bruges",
    "country": "BE",
    "lat": 51.32723,
    "lng": 3.13469,
    "relay": "https://relay-be-bruges.macula.io:4433"
  },
  {
    "name": "geerts",
    "city": "Brussels",
    "country": "BE",
    "lat": 50.71988,
    "lng": 4.40712,
    "relay": "https://relay-be-brussels.macula.io:4433"
  },
  {
    "name": "neural-labs-leuven",
    "city": "Brussels",
    "country": "BE",
    "lat": 50.9062,
    "lng": 4.3956,
    "relay": "https://relay-be-brussels.macula.io:4433"
  },
  {
    "name": "collignon",
    "city": "Ghent",
    "country": "BE",
    "lat": 51.10805,
    "lng": 3.81131,
    "relay": "https://relay-be-ghent.macula.io:4433"
  },
  {
    "name": "garage-vdb",
    "city": "Brussels",
    "country": "BE",
    "lat": 50.90992,
    "lng": 4.2622,
    "relay": "https://relay-be-brussels.macula.io:4433"
  },
  {
    "name": "garage-martin",
    "city": "Antwerp",
    "country": "BE",
    "lat": 51.12722,
    "lng": 4.46272,
    "relay": "https://relay-be-antwerp.macula.io:4433"
  },
  {
    "name": "cafe-de-markt",
    "city": "Bruges",
    "country": "BE",
    "lat": 51.10675,
    "lng": 3.08635,
    "relay": "https://relay-be-bruges.macula.io:4433"
  },
  {
    "name": "brasserie-leopold",
    "city": "Aalst",
    "country": "BE",
    "lat": 50.82968,
    "lng": 4.00761,
    "relay": "https://relay-be-aalst.macula.io:4433"
  },
  {
    "name": "chocolaterie-artisan",
    "city": "Hasselt",
    "country": "BE",
    "lat": 50.8971,
    "lng": 5.5038,
    "relay": "https://relay-be-hasselt.macula.io:4433"
  },
  {
    "name": "servais",
    "city": "Antwerp",
    "country": "BE",
    "lat": 51.20783,
    "lng": 4.60517,
    "relay": "https://relay-be-antwerp.macula.io:4433"
  },
  {
    "name": "wouters",
    "city": "Verviers",
    "country": "BE",
    "lat": 50.52168,
    "lng": 5.82664,
    "relay": "https://relay-be-verviers.macula.io:4433"
  },
  {
    "name": "cools",
    "city": "Ostend",
    "country": "BE",
    "lat": 51.24478,
    "lng": 3.04241,
    "relay": "https://relay-be-ostend.macula.io:4433"
  },
  {
    "name": "marchal",
    "city": "Tournai",
    "country": "BE",
    "lat": 50.55964,
    "lng": 3.30638,
    "relay": "https://relay-be-tournai.macula.io:4433"
  },
  {
    "name": "sels",
    "city": "Mechelen",
    "country": "BE",
    "lat": 51.02499,
    "lng": 4.68234,
    "relay": "https://relay-be-mechelen.macula.io:4433"
  },
  {
    "name": "van-damme",
    "city": "Brussels",
    "country": "BE",
    "lat": 50.92387,
    "lng": 4.42803,
    "relay": "https://relay-be-brussels.macula.io:4433"
  },
  {
    "name": "diamant-exchange",
    "city": "Ghent",
    "country": "BE",
    "lat": 51.12937,
    "lng": 3.75136,
    "relay": "https://relay-be-ghent.macula.io:4433"
  },
  {
    "name": "hermans",
    "city": "Antwerp",
    "country": "BE",
    "lat": 51.17435,
    "lng": 4.31871,
    "relay": "https://relay-be-antwerp.macula.io:4433"
  },
  {
    "name": "apotheek-centraal",
    "city": "Verviers",
    "country": "BE",
    "lat": 50.48228,
    "lng": 5.927,
    "relay": "https://relay-be-verviers.macula.io:4433"
  },
  {
    "name": "laurent",
    "city": "Hasselt",
    "country": "BE",
    "lat": 50.9677,
    "lng": 5.34107,
    "relay": "https://relay-be-hasselt.macula.io:4433"
  },
  {
    "name": "lemaire",
    "city": "Arlon",
    "country": "BE",
    "lat": 49.76558,
    "lng": 5.72903,
    "relay": "https://relay-be-arlon.macula.io:4433"
  },
  {
    "name": "dams",
    "city": "Dendermonde",
    "country": "BE",
    "lat": 50.96,
    "lng": 4.21736,
    "relay": "https://relay-be-dendermonde.macula.io:4433"
  },
  {
    "name": "mertens",
    "city": "Leuven",
    "country": "BE",
    "lat": 50.93203,
    "lng": 4.78587,
    "relay": "https://relay-be-leuven.macula.io:4433"
  },
  {
    "name": "nijs",
    "city": "La Louviere",
    "country": "BE",
    "lat": 50.49778,
    "lng": 4.17843,
    "relay": "https://relay-be-la-louviere.macula.io:4433"
  },
  {
    "name": "atelier-simon",
    "city": "Liege",
    "country": "BE",
    "lat": 50.64596,
    "lng": 5.68279,
    "relay": "https://relay-be-liege.macula.io:4433"
  },
  {
    "name": "brouwers",
    "city": "Brussels",
    "country": "BE",
    "lat": 50.78899,
    "lng": 4.47906,
    "relay": "https://relay-be-brussels.macula.io:4433"
  },
  {
    "name": "vandenbulcke",
    "city": "Leuven",
    "country": "BE",
    "lat": 50.99521,
    "lng": 4.67016,
    "relay": "https://relay-be-leuven.macula.io:4433"
  },
  {
    "name": "dubois",
    "city": "Ghent",
    "country": "BE",
    "lat": 51.14235,
    "lng": 3.55772,
    "relay": "https://relay-be-ghent.macula.io:4433"
  },
  {
    "name": "vanhees",
    "city": "Wavre",
    "country": "BE",
    "lat": 50.75409,
    "lng": 4.7342,
    "relay": "https://relay-be-wavre.macula.io:4433"
  },
  {
    "name": "vinothek-somelier",
    "city": "Antwerp",
    "country": "BE",
    "lat": 51.21283,
    "lng": 4.27859,
    "relay": "https://relay-be-antwerp.macula.io:4433"
  },
  {
    "name": "martin",
    "city": "Leuven",
    "country": "BE",
    "lat": 50.92029,
    "lng": 4.51204,
    "relay": "https://relay-be-leuven.macula.io:4433"
  },
  {
    "name": "fietsen-willems",
    "city": "Wavre",
    "country": "BE",
    "lat": 50.71632,
    "lng": 4.69645,
    "relay": "https://relay-be-wavre.macula.io:4433"
  },
  {
    "name": "brasserie-oud-brugge",
    "city": "Arlon",
    "country": "BE",
    "lat": 49.7816,
    "lng": 5.93913,
    "relay": "https://relay-be-arlon.macula.io:4433"
  },
  {
    "name": "thomas",
    "city": "Namur",
    "country": "BE",
    "lat": 50.48845,
    "lng": 5.06098,
    "relay": "https://relay-be-namur.macula.io:4433"
  },
  {
    "name": "elektro-jacobs",
    "city": "Namur",
    "country": "BE",
    "lat": 50.39566,
    "lng": 5.02783,
    "relay": "https://relay-be-namur.macula.io:4433"
  },
  {
    "name": "martens",
    "city": "Ghent",
    "country": "BE",
    "lat": 51.07289,
    "lng": 3.88954,
    "relay": "https://relay-be-ghent.macula.io:4433"
  },
  {
    "name": "cloudnine-tech",
    "city": "Leuven",
    "country": "BE",
    "lat": 50.82048,
    "lng": 4.87603,
    "relay": "https://relay-be-leuven.macula.io:4433"
  },
  {
    "name": "pharmacie-lambert",
    "city": "Turnhout",
    "country": "BE",
    "lat": 51.3028,
    "lng": 5.1187,
    "relay": "https://relay-be-turnhout.macula.io:4433"
  },
  {
    "name": "vandenberghe",
    "city": "Leuven",
    "country": "BE",
    "lat": 50.82661,
    "lng": 4.52275,
    "relay": "https://relay-be-leuven.macula.io:4433"
  },
  {
    "name": "taverne-de-leeuw",
    "city": "Liege",
    "country": "BE",
    "lat": 50.67179,
    "lng": 5.55274,
    "relay": "https://relay-be-liege.macula.io:4433"
  },
  {
    "name": "janssens",
    "city": "Ghent",
    "country": "BE",
    "lat": 51.11183,
    "lng": 3.90743,
    "relay": "https://relay-be-ghent.macula.io:4433"
  },
  {
    "name": "greenpower-namur",
    "city": "Ghent",
    "country": "BE",
    "lat": 51.15567,
    "lng": 3.75693,
    "relay": "https://relay-be-ghent.macula.io:4433"
  },
  {
    "name": "meshworks-bvba",
    "city": "Liege",
    "country": "BE",
    "lat": 50.61903,
    "lng": 5.46147,
    "relay": "https://relay-be-liege.macula.io:4433"
  },
  {
    "name": "logistiek-zeebrugge",
    "city": "Ostend",
    "country": "BE",
    "lat": 51.27113,
    "lng": 2.91264,
    "relay": "https://relay-be-ostend.macula.io:4433"
  },
  {
    "name": "wafel-paradijs",
    "city": "Hasselt",
    "country": "BE",
    "lat": 50.94117,
    "lng": 5.37951,
    "relay": "https://relay-be-hasselt.macula.io:4433"
  },
  {
    "name": "somers",
    "city": "Leuven",
    "country": "BE",
    "lat": 51.0098,
    "lng": 4.70269,
    "relay": "https://relay-be-leuven.macula.io:4433"
  },
  {
    "name": "iot-solutions-gent",
    "city": "Charleroi",
    "country": "BE",
    "lat": 50.36017,
    "lng": 4.25495,
    "relay": "https://relay-be-charleroi.macula.io:4433"
  },
  {
    "name": "frituur-de-hoek",
    "city": "Verviers",
    "country": "BE",
    "lat": 50.54929,
    "lng": 5.75029,
    "relay": "https://relay-be-verviers.macula.io:4433"
  },
  {
    "name": "bakkerij-artisan",
    "city": "Brussels",
    "country": "BE",
    "lat": 50.97334,
    "lng": 4.28685,
    "relay": "https://relay-be-brussels.macula.io:4433"
  },
  {
    "name": "architect-bogaert",
    "city": "Ostend",
    "country": "BE",
    "lat": 51.17676,
    "lng": 3.1028,
    "relay": "https://relay-be-ostend.macula.io:4433"
  },
  {
    "name": "bogaert",
    "city": "Roeselare",
    "country": "BE",
    "lat": 51.02477,
    "lng": 3.03466,
    "relay": "https://relay-be-roeselare.macula.io:4433"
  },
  {
    "name": "gilles",
    "city": "Aalst",
    "country": "BE",
    "lat": 50.86639,
    "lng": 4.11335,
    "relay": "https://relay-be-aalst.macula.io:4433"
  },
  {
    "name": "cybercafe-connect",
    "city": "Bruges",
    "country": "BE",
    "lat": 51.15354,
    "lng": 3.19302,
    "relay": "https://relay-be-bruges.macula.io:4433"
  },
  {
    "name": "bodart",
    "city": "Aalst",
    "country": "BE",
    "lat": 51.0418,
    "lng": 3.97471,
    "relay": "https://relay-be-aalst.macula.io:4433"
  },
  {
    "name": "de-meyer",
    "city": "Antwerp",
    "country": "BE",
    "lat": 51.16395,
    "lng": 4.32394,
    "relay": "https://relay-be-antwerp.macula.io:4433"
  },
  {
    "name": "pauwels",
    "city": "Hasselt",
    "country": "BE",
    "lat": 50.96811,
    "lng": 5.23529,
    "relay": "https://relay-be-hasselt.macula.io:4433"
  },
  {
    "name": "hendrickx",
    "city": "Antwerp",
    "country": "BE",
    "lat": 51.12631,
    "lng": 4.47256,
    "relay": "https://relay-be-antwerp.macula.io:4433"
  },
  {
    "name": "edgecompute-be",
    "city": "Aalst",
    "country": "BE",
    "lat": 50.89891,
    "lng": 4.1674,
    "relay": "https://relay-be-aalst.macula.io:4433"
  },
  {
    "name": "jacobs",
    "city": "Tournai",
    "country": "BE",
    "lat": 50.62682,
    "lng": 3.53078,
    "relay": "https://relay-be-tournai.macula.io:4433"
  },
  {
    "name": "willems",
    "city": "La Louviere",
    "country": "BE",
    "lat": 50.46154,
    "lng": 4.01413,
    "relay": "https://relay-be-la-louviere.macula.io:4433"
  },
  {
    "name": "verhoeven",
    "city": "Ghent",
    "country": "BE",
    "lat": 50.9473,
    "lng": 3.70082,
    "relay": "https://relay-be-ghent.macula.io:4433"
  },
  {
    "name": "renson",
    "city": "Liege",
    "country": "BE",
    "lat": 50.739,
    "lng": 5.69479,
    "relay": "https://relay-be-liege.macula.io:4433"
  },
  {
    "name": "lambert",
    "city": "Ghent",
    "country": "BE",
    "lat": 51.02443,
    "lng": 3.62726,
    "relay": "https://relay-be-ghent.macula.io:4433"
  },
  {
    "name": "dumont",
    "city": "Antwerp",
    "country": "BE",
    "lat": 51.23686,
    "lng": 4.43956,
    "relay": "https://relay-be-antwerp.macula.io:4433"
  },
  {
    "name": "fromagerie-laurent",
    "city": "Namur",
    "country": "BE",
    "lat": 50.37673,
    "lng": 4.75222,
    "relay": "https://relay-be-namur.macula.io:4433"
  },
  {
    "name": "drukkerij-claes",
    "city": "Namur",
    "country": "BE",
    "lat": 50.37529,
    "lng": 4.95827,
    "relay": "https://relay-be-namur.macula.io:4433"
  },
  {
    "name": "studio-creatief",
    "city": "Antwerp",
    "country": "BE",
    "lat": 51.20286,
    "lng": 4.27144,
    "relay": "https://relay-be-antwerp.macula.io:4433"
  },
  {
    "name": "desmet",
    "city": "Leuven",
    "country": "BE",
    "lat": 50.88394,
    "lng": 4.87385,
    "relay": "https://relay-be-leuven.macula.io:4433"
  },
  {
    "name": "thijs",
    "city": "Brussels",
    "country": "BE",
    "lat": 50.94821,
    "lng": 4.22772,
    "relay": "https://relay-be-brussels.macula.io:4433"
  },
  {
    "name": "buelens",
    "city": "Brussels",
    "country": "BE",
    "lat": 50.86153,
    "lng": 4.25316,
    "relay": "https://relay-be-brussels.macula.io:4433"
  },
  {
    "name": "bernaerts",
    "city": "Wavre",
    "country": "BE",
    "lat": 50.80958,
    "lng": 4.5712,
    "relay": "https://relay-be-wavre.macula.io:4433"
  },
  {
    "name": "pirard",
    "city": "Brussels",
    "country": "BE",
    "lat": 50.72919,
    "lng": 4.27934,
    "relay": "https://relay-be-brussels.macula.io:4433"
  },
  {
    "name": "claes",
    "city": "Antwerp",
    "country": "BE",
    "lat": 51.10292,
    "lng": 4.45468,
    "relay": "https://relay-be-antwerp.macula.io:4433"
  },
  {
    "name": "de-cock",
    "city": "Aalst",
    "country": "BE",
    "lat": 50.8392,
    "lng": 4.00814,
    "relay": "https://relay-be-aalst.macula.io:4433"
  },
  {
    "name": "peeters",
    "city": "Bruges",
    "country": "BE",
    "lat": 51.33065,
    "lng": 3.16181,
    "relay": "https://relay-be-bruges.macula.io:4433"
  },
  {
    "name": "lejeune",
    "city": "Ostend",
    "country": "BE",
    "lat": 51.27609,
    "lng": 2.73287,
    "relay": "https://relay-be-ostend.macula.io:4433"
  },
  {
    "name": "de-graef",
    "city": "Leuven",
    "country": "BE",
    "lat": 50.9283,
    "lng": 4.56185,
    "relay": "https://relay-be-leuven.macula.io:4433"
  },
  {
    "name": "biotech-liege",
    "city": "Antwerp",
    "country": "BE",
    "lat": 51.21569,
    "lng": 4.25397,
    "relay": "https://relay-be-antwerp.macula.io:4433"
  },
  {
    "name": "webdesign-pixel",
    "city": "Ghent",
    "country": "BE",
    "lat": 51.05568,
    "lng": 3.52039,
    "relay": "https://relay-be-ghent.macula.io:4433"
  },
  {
    "name": "patisserie-duchene",
    "city": "Ghent",
    "country": "BE",
    "lat": 51.06398,
    "lng": 3.56295,
    "relay": "https://relay-be-ghent.macula.io:4433"
  },
  {
    "name": "baert",
    "city": "Mons",
    "country": "BE",
    "lat": 50.46025,
    "lng": 4.09705,
    "relay": "https://relay-be-mons.macula.io:4433"
  },
  {
    "name": "vermeersch",
    "city": "Sint-Niklaas",
    "country": "BE",
    "lat": 51.14072,
    "lng": 4.26679,
    "relay": "https://relay-be-sint-niklaas.macula.io:4433"
  },
  {
    "name": "aerts",
    "city": "Bruges",
    "country": "BE",
    "lat": 51.23932,
    "lng": 3.18657,
    "relay": "https://relay-be-bruges.macula.io:4433"
  },
  {
    "name": "cornet",
    "city": "Antwerp",
    "country": "BE",
    "lat": 51.23262,
    "lng": 4.58099,
    "relay": "https://relay-be-antwerp.macula.io:4433"
  },
  {
    "name": "slagerij-peeters",
    "city": "Sint-Niklaas",
    "country": "BE",
    "lat": 51.17595,
    "lng": 4.29253,
    "relay": "https://relay-be-sint-niklaas.macula.io:4433"
  },
  {
    "name": "van-hoeck",
    "city": "Liege",
    "country": "BE",
    "lat": 50.54517,
    "lng": 5.54336,
    "relay": "https://relay-be-liege.macula.io:4433"
  },
  {
    "name": "lammens",
    "city": "Antwerp",
    "country": "BE",
    "lat": 51.26136,
    "lng": 4.28571,
    "relay": "https://relay-be-antwerp.macula.io:4433"
  },
  {
    "name": "de-smedt",
    "city": "Turnhout",
    "country": "BE",
    "lat": 51.22516,
    "lng": 4.8575,
    "relay": "https://relay-be-turnhout.macula.io:4433"
  },
  {
    "name": "immo-trust",
    "city": "Genk",
    "country": "BE",
    "lat": 50.88203,
    "lng": 5.43465,
    "relay": "https://relay-be-genk.macula.io:4433"
  },
  {
    "name": "librairie-mols",
    "city": "Liege",
    "country": "BE",
    "lat": 50.60382,
    "lng": 5.70658,
    "relay": "https://relay-be-liege.macula.io:4433"
  }
]