[
  {
    "name": "valencia-cafe-0",
    "city": "Valencia",
    "country": "ES",
    "lat": 39.3499,
    "lng": -0.5263,
    "relay": "https://relay-es-valencia.macula.io:4433"
  },
  {
    "name": "the-hansen-1",
    "city": "Seville",
    "country": "ES",
    "lat": 37.3291,
    "lng": -6.0845,
    "relay": "https://relay-es-seville.macula.io:4433"
  },
  {
    "name": "the-korhonen-2",
    "city": "Bilbao",
    "country": "ES",
    "lat": 43.263,
    "lng": -2.985,
    "relay": "https://relay-es-bilbao.macula.io:4433"
  },
  {
    "name": "malaga-tech-3",
    "city": "Malaga",
    "country": "ES",
    "lat": 36.7813,
    "lng": -4.4214,
    "relay": "https://relay-es-malaga.macula.io:4433"
  },
  {
    "name": "the-ivanov-4",
    "city": "Lisbon",
    "country": "PT",
    "lat": 38.8423,
    "lng": -9.0893,
    "relay": "https://relay-pt-lisbon.macula.io:4433"
  },
  {
    "name": "the-papadopoulos-5",
    "city": "Porto",
    "country": "PT",
    "lat": 41.0379,
    "lng": -8.5291,
    "relay": "https://relay-pt-porto.macula.io:4433"
  },
  {
    "name": "rome-bakery-6",
    "city": "Rome",
    "country": "IT",
    "lat": 41.8428,
    "lng": 12.6464,
    "relay": "https://relay-it-rome.macula.io:4433"
  },
  {
    "name": "the-berzins-7",
    "city": "Milan",
    "country": "IT",
    "lat": 45.4642,
    "lng": 9.04,
    "relay": "https://relay-it-milan.macula.io:4433"
  },
  {
    "name": "the-kazlauskas-8",
    "city": "Naples",
    "country": "IT",
    "lat": 40.9118,
    "lng": 14.1681,
    "relay": "https://relay-it-naples.macula.io:4433"
  },
  {
    "name": "turin-gym-9",
    "city": "Turin",
    "country": "IT",
    "lat": 45.1903,
    "lng": 7.6369,
    "relay": "https://relay-it-turin.macula.io:4433"
  },
  {
    "name": "the-nagy-10",
    "city": "Florence",
    "country": "IT",
    "lat": 43.6496,
    "lng": 11.2558,
    "relay": "https://relay-it-florence.macula.io:4433"
  },
  {
    "name": "the-novak-11",
    "city": "Venice",
    "country": "IT",
    "lat": 45.3808,
    "lng": 12.3655,
    "relay": "https://relay-it-venice.macula.io:4433"
  },
  {
    "name": "palermo-school-12",
    "city": "Palermo",
    "country": "IT",
    "lat": 38.1157,
    "lng": 13.4615,
    "relay": "https://relay-it-palermo.macula.io:4433"
  },
  {
    "name": "the-smith-13",
    "city": "Zagreb",
    "country": "HR",
    "lat": 45.875,
    "lng": 16.1319,
    "relay": "https://relay-hr-zagreb.macula.io:4433"
  },
  {
    "name": "the-mueller-14",
    "city": "Ljubljana",
    "country": "SI",
    "lat": 46.1769,
    "lng": 14.3558,
    "relay": "https://relay-si-ljubljana.macula.io:4433"
  },
  {
    "name": "belgrade-farm-15",
    "city": "Belgrade",
    "country": "RS",
    "lat": 44.6666,
    "lng": 20.3489,
    "relay": "https://relay-rs-belgrade.macula.io:4433"
  },
  {
    "name": "the-garcia-16",
    "city": "Sarajevo",
    "country": "BA",
    "lat": 43.7963,
    "lng": 18.3631,
    "relay": "https://relay-ba-sarajevo.macula.io:4433"
  },
  {
    "name": "the-rossi-17",
    "city": "Podgorica",
    "country": "ME",
    "lat": 42.4304,
    "lng": 19.2594,
    "relay": "https://relay-me-podgorica.macula.io:4433"
  },
  {
    "name": "tirana-hotel-18",
    "city": "Tirana",
    "country": "AL",
    "lat": 41.3875,
    "lng": 19.8687,
    "relay": "https://relay-al-tirana.macula.io:4433"
  },
  {
    "name": "the-shevchenko-19",
    "city": "Skopje",
    "country": "MK",
    "lat": 42.1173,
    "lng": 21.528,
    "relay": "https://relay-mk-skopje.macula.io:4433"
  },
  {
    "name": "the-johansson-20",
    "city": "Valletta",
    "country": "MT",
    "lat": 35.7789,
    "lng": 14.6646,
    "relay": "https://relay-mt-valletta.macula.io:4433"
  },
  {
    "name": "nicosia-clinic-21",
    "city": "Nicosia",
    "country": "CY",
    "lat": 35.1256,
    "lng": 33.2323,
    "relay": "https://relay-cy-nicosia.macula.io:4433"
  },
  {
    "name": "the-korhonen-22",
    "city": "Reykjavik",
    "country": "IS",
    "lat": 64.1466,
    "lng": -22.0426,
    "relay": "https://relay-is-reykjavik.macula.io:4433"
  },
  {
    "name": "the-popescu-23",
    "city": "Bari",
    "country": "IT",
    "lat": 41.1771,
    "lng": 16.8219,
    "relay": "https://relay-it-bari.macula.io:4433"
  },
  {
    "name": "athens-solar-24",
    "city": "Athens",
    "country": "GR",
    "lat": 38.1038,
    "lng": 23.7275,
    "relay": "https://relay-gr-athens.macula.io:4433"
  },
  {
    "name": "the-papadopoulos-25",
    "city": "Helsinki",
    "country": "FI",
    "lat": 60.0499,
    "lng": 24.9884,
    "relay": "https://relay-fi-helsinki.macula.io:4433"
  },
  {
    "name": "the-horvat-26",
    "city": "Tampere",
    "country": "FI",
    "lat": 61.4378,
    "lng": 23.861,
    "relay": "https://relay-fi-tampere.macula.io:4433"
  },
  {
    "name": "turku-lab-27",
    "city": "Turku",
    "country": "FI",
    "lat": 60.4518,
    "lng": 22.4166,
    "relay": "https://relay-fi-turku.macula.io:4433"
  },
  {
    "name": "the-kazlauskas-28",
    "city": "Oulu",
    "country": "FI",
    "lat": 65.0721,
    "lng": 25.3151,
    "relay": "https://relay-fi-oulu.macula.io:4433"
  },
  {
    "name": "the-tamm-29",
    "city": "Stockholm",
    "country": "SE",
    "lat": 59.4493,
    "lng": 17.9686,
    "relay": "https://relay-se-stockholm.macula.io:4433"
  },
  {
    "name": "gothenbu-cafe-30",
    "city": "Gothenburg",
    "country": "SE",
    "lat": 57.5889,
    "lng": 11.9246,
    "relay": "https://relay-se-gothenburg.macula.io:4433"
  },
  {
    "name": "the-novak-31",
    "city": "Malmo",
    "country": "SE",
    "lat": 55.545,
    "lng": 13.0038,
    "relay": "https://relay-se-malmo.macula.io:4433"
  },
  {
    "name": "the-silva-32",
    "city": "Uppsala",
    "country": "SE",
    "lat": 59.8586,
    "lng": 17.6889,
    "relay": "https://relay-se-uppsala.macula.io:4433"
  },
  {
    "name": "oslo-tech-33",
    "city": "Oslo",
    "country": "NO",
    "lat": 59.9739,
    "lng": 10.8522,
    "relay": "https://relay-no-oslo.macula.io:4433"
  },
  {
    "name": "the-mueller-34",
    "city": "Bergen",
    "country": "NO",
    "lat": 60.5113,
    "lng": 5.4721,
    "relay": "https://relay-no-bergen.macula.io:4433"
  },
  {
    "name": "the-martin-35",
    "city": "Trondheim",
    "country": "NO",
    "lat": 63.3105,
    "lng": 10.2451,
    "relay": "https://relay-no-trondheim.macula.io:4433"
  },
  {
    "name": "copenhag-bakery-36",
    "city": "Copenhagen",
    "country": "DK",
    "lat": 55.6161,
    "lng": 12.4683,
    "relay": "https://relay-dk-copenhagen.macula.io:4433"
  },
  {
    "name": "the-rossi-37",
    "city": "Aarhus",
    "country": "DK",
    "lat": 56.1629,
    "lng": 10.1539,
    "relay": "https://relay-dk-aarhus.macula.io:4433"
  },
  {
    "name": "the-nowak-38",
    "city": "Tallinn",
    "country": "EE",
    "lat": 59.497,
    "lng": 24.7536,
    "relay": "https://relay-ee-tallinn.macula.io:4433"
  },
  {
    "name": "tartu-gym-39",
    "city": "Tartu",
    "country": "EE",
    "lat": 58.498,
    "lng": 26.779,
    "relay": "https://relay-ee-tartu.macula.io:4433"
  },
  {
    "name": "the-johansson-40",
    "city": "Riga",
    "country": "LV",
    "lat": 56.8296,
    "lng": 24.2052,
    "relay": "https://relay-lv-riga.macula.io:4433"
  },
  {
    "name": "the-hansen-41",
    "city": "Daugavpils",
    "country": "LV",
    "lat": 55.8149,
    "lng": 26.6856,
    "relay": "https://relay-lv-daugavpils.macula.io:4433"
  },
  {
    "name": "vilnius-school-42",
    "city": "Vilnius",
    "country": "LT",
    "lat": 54.6872,
    "lng": 25.1297,
    "relay": "https://relay-lt-vilnius.macula.io:4433"
  },
  {
    "name": "the-popescu-43",
    "city": "Kaunas",
    "country": "LT",
    "lat": 54.9585,
    "lng": 23.8036,
    "relay": "https://relay-lt-kaunas.macula.io:4433"
  },
  {
    "name": "the-ivanov-44",
    "city": "Klaipeda",
    "country": "LT",
    "lat": 55.8233,
    "lng": 21.0943,
    "relay": "https://relay-lt-klaipeda.macula.io:4433"
  },
  {
    "name": "warsaw-farm-45",
    "city": "Warsaw",
    "country": "PL",
    "lat": 52.1097,
    "lng": 21.0122,
    "relay": "https://relay-pl-warsaw.macula.io:4433"
  },
  {
    "name": "the-horvat-46",
    "city": "Krakow",
    "country": "PL",
    "lat": 50.0047,
    "lng": 19.995,
    "relay": "https://relay-pl-krakow.macula.io:4433"
  },
  {
    "name": "the-berzins-47",
    "city": "Gdansk",
    "country": "PL",
    "lat": 54.352,
    "lng": 18.7466,
    "relay": "https://relay-pl-gdansk.macula.io:4433"
  },
  {
    "name": "wroclaw-hotel-48",
    "city": "Wroclaw",
    "country": "PL",
    "lat": 51.1679,
    "lng": 17.1885,
    "relay": "https://relay-pl-wroclaw.macula.io:4433"
  },
  {
    "name": "the-tamm-49",
    "city": "Poznan",
    "country": "PL",
    "lat": 52.5264,
    "lng": 16.7752,
    "relay": "https://relay-pl-poznan.macula.io:4433"
  },
  {
    "name": "the-nagy-50",
    "city": "Lodz",
    "country": "PL",
    "lat": 51.6392,
    "lng": 19.356,
    "relay": "https://relay-pl-lodz.macula.io:4433"
  },
  {
    "name": "szczecin-clinic-51",
    "city": "Szczecin",
    "country": "PL",
    "lat": 53.3685,
    "lng": 14.5028,
    "relay": "https://relay-pl-szczecin.macula.io:4433"
  },
  {
    "name": "the-silva-52",
    "city": "Lublin",
    "country": "PL",
    "lat": 51.2465,
    "lng": 22.5684,
    "relay": "https://relay-pl-lublin.macula.io:4433"
  },
  {
    "name": "the-smith-53",
    "city": "Katowice",
    "country": "PL",
    "lat": 50.3249,
    "lng": 19.0738,
    "relay": "https://relay-pl-katowice.macula.io:4433"
  },
  {
    "name": "rzeszow-solar-54",
    "city": "Rzeszow",
    "country": "PL",
    "lat": 50.1612,
    "lng": 22.0991,
    "relay": "https://relay-pl-rzeszow.macula.io:4433"
  },
  {
    "name": "the-martin-55",
    "city": "Prague",
    "country": "CZ",
    "lat": 49.9555,
    "lng": 14.5878,
    "relay": "https://relay-cz-prague.macula.io:4433"
  },
  {
    "name": "the-garcia-56",
    "city": "Brno",
    "country": "CZ",
    "lat": 49.1351,
    "lng": 16.4568,
    "relay": "https://relay-cz-brno.macula.io:4433"
  },
  {
    "name": "bratisla-lab-57",
    "city": "Bratislava",
    "country": "SK",
    "lat": 48.1486,
    "lng": 17.0077,
    "relay": "https://relay-sk-bratislava.macula.io:4433"
  },
  {
    "name": "the-nowak-58",
    "city": "Kosice",
    "country": "SK",
    "lat": 48.7764,
    "lng": 21.2111,
    "relay": "https://relay-sk-kosice.macula.io:4433"
  },
  {
    "name": "the-shevchenko-59",
    "city": "Budapest",
    "country": "HU",
    "lat": 47.6179,
    "lng": 19.0402,
    "relay": "https://relay-hu-budapest.macula.io:4433"
  },
  {
    "name": "debrecen-cafe-60",
    "city": "Debrecen",
    "country": "HU",
    "lat": 47.4116,
    "lng": 21.6773,
    "relay": "https://relay-hu-debrecen.macula.io:4433"
  },
  {
    "name": "the-hansen-61",
    "city": "Bucharest",
    "country": "RO",
    "lat": 44.3668,
    "lng": 26.2025,
    "relay": "https://relay-ro-bucharest.macula.io:4433"
  },
  {
    "name": "the-korhonen-62",
    "city": "Cluj-Napoca",
    "country": "RO",
    "lat": 46.7712,
    "lng": 23.7736,
    "relay": "https://relay-ro-cluj.macula.io:4433"
  },
  {
    "name": "timisoar-tech-63",
    "city": "Timisoara",
    "country": "RO",
    "lat": 45.8089,
    "lng": 21.0587,
    "relay": "https://relay-ro-timisoara.macula.io:4433"
  },
  {
    "name": "the-ivanov-64",
    "city": "Iasi",
    "country": "RO",
    "lat": 47.2785,
    "lng": 27.5014,
    "relay": "https://relay-ro-iasi.macula.io:4433"
  },
  {
    "name": "the-papadopoulos-65",
    "city": "Constanta",
    "country": "RO",
    "lat": 44.0398,
    "lng": 28.5848,
    "relay": "https://relay-ro-constanta.macula.io:4433"
  },
  {
    "name": "brasov-bakery-66",
    "city": "Brasov",
    "country": "RO",
    "lat": 45.5827,
    "lng": 25.5887,
    "relay": "https://relay-ro-brasov.macula.io:4433"
  },
  {
    "name": "the-berzins-67",
    "city": "Sofia",
    "country": "BG",
    "lat": 42.6977,
    "lng": 23.3719,
    "relay": "https://relay-bg-sofia.macula.io:4433"
  },
  {
    "name": "the-kazlauskas-68",
    "city": "Plovdiv",
    "country": "BG",
    "lat": 42.1954,
    "lng": 24.8453,
    "relay": "https://relay-bg-plovdiv.macula.io:4433"
  },
  {
    "name": "thessalo-gym-69",
    "city": "Thessaloniki",
    "country": "GR",
    "lat": 40.7601,
    "lng": 23.0944,
    "relay": "https://relay-gr-thessaloniki.macula.io:4433"
  },
  {
    "name": "the-nagy-70",
    "city": "Chisinau",
    "country": "MD",
    "lat": 46.8905,
    "lng": 28.7138,
    "relay": "https://relay-md-chisinau.macula.io:4433"
  },
  {
    "name": "the-novak-71",
    "city": "Kyiv",
    "country": "UA",
    "lat": 50.3901,
    "lng": 30.4234,
    "relay": "https://relay-ua-kyiv.macula.io:4433"
  },
  {
    "name": "lviv-school-72",
    "city": "Lviv",
    "country": "UA",
    "lat": 49.8397,
    "lng": 23.9797,
    "relay": "https://relay-ua-lviv.macula.io:4433"
  },
  {
    "name": "the-smith-73",
    "city": "Odessa",
    "country": "UA",
    "lat": 46.5425,
    "lng": 30.7233,
    "relay": "https://relay-ua-odessa.macula.io:4433"
  },
  {
    "name": "the-mueller-74",
    "city": "Kharkiv",
    "country": "UA",
    "lat": 50.1135,
    "lng": 36.2804,
    "relay": "https://relay-ua-kharkiv.macula.io:4433"
  },
  {
    "name": "dnipro-farm-75",
    "city": "Dnipro",
    "country": "UA",
    "lat": 48.3447,
    "lng": 35.1462,
    "relay": "https://relay-ua-dnipro.macula.io:4433"
  },
  {
    "name": "the-garcia-76",
    "city": "Zaporizhzhia",
    "country": "UA",
    "lat": 47.7788,
    "lng": 35.2896,
    "relay": "https://relay-ua-zaporizhzhia.macula.io:4433"
  },
  {
    "name": "the-rossi-77",
    "city": "Vinnytsia",
    "country": "UA",
    "lat": 49.2331,
    "lng": 28.3182,
    "relay": "https://relay-ua-vinnytsia.macula.io:4433"
  },
  {
    "name": "poltava-hotel-78",
    "city": "Poltava",
    "country": "UA",
    "lat": 49.6483,
    "lng": 34.4514,
    "relay": "https://relay-ua-poltava.macula.io:4433"
  },
  {
    "name": "the-shevchenko-79",
    "city": "Chernihiv",
    "country": "UA",
    "lat": 51.6182,
    "lng": 31.2393,
    "relay": "https://relay-ua-chernihiv.macula.io:4433"
  },
  {
    "name": "the-johansson-80",
    "city": "Sumy",
    "country": "UA",
    "lat": 50.7877,
    "lng": 34.7981,
    "relay": "https://relay-ua-sumy.macula.io:4433"
  },
  {
    "name": "zhytomyr-clinic-81",
    "city": "Zhytomyr",
    "country": "UA",
    "lat": 50.1947,
    "lng": 28.7087,
    "relay": "https://relay-ua-zhytomyr.macula.io:4433"
  },
  {
    "name": "the-korhonen-82",
    "city": "Rivne",
    "country": "UA",
    "lat": 50.6199,
    "lng": 26.3516,
    "relay": "https://relay-ua-rivne.macula.io:4433"
  },
  {
    "name": "the-popescu-83",
    "city": "Ternopil",
    "country": "UA",
    "lat": 49.6135,
    "lng": 25.7448,
    "relay": "https://relay-ua-ternopil.macula.io:4433"
  },
  {
    "name": "cherkasy-solar-84",
    "city": "Cherkasy",
    "country": "UA",
    "lat": 49.5644,
    "lng": 31.9098,
    "relay": "https://relay-ua-cherkasy.macula.io:4433"
  },
  {
    "name": "the-papadopoulos-85",
    "city": "Mykolaiv",
    "country": "UA",
    "lat": 46.855,
    "lng": 31.8946,
    "relay": "https://relay-ua-mykolaiv.macula.io:4433"
  },
  {
    "name": "the-horvat-86",
    "city": "Kherson",
    "country": "UA",
    "lat": 46.5754,
    "lng": 32.5669,
    "relay": "https://relay-ua-kherson.macula.io:4433"
  },
  {
    "name": "donetsk-lab-87",
    "city": "Donetsk",
    "country": "UA",
    "lat": 48.0159,
    "lng": 37.8029,
    "relay": "https://relay-ua-donetsk.macula.io:4433"
  },
  {
    "name": "the-kazlauskas-88",
    "city": "Luhansk",
    "country": "UA",
    "lat": 48.634,
    "lng": 39.3578,
    "relay": "https://relay-ua-luhansk.macula.io:4433"
  },
  {
    "name": "the-tamm-89",
    "city": "Mariupol",
    "country": "UA",
    "lat": 47.2158,
    "lng": 37.6494,
    "relay": "https://relay-ua-mariupol.macula.io:4433"
  },
  {
    "name": "kramator-cafe-90",
    "city": "Kramatorsk",
    "country": "UA",
    "lat": 48.6164,
    "lng": 37.7058,
    "relay": "https://relay-ua-kramatorsk.macula.io:4433"
  },
  {
    "name": "the-novak-91",
    "city": "Ivano-Frankivsk",
    "country": "UA",
    "lat": 48.8626,
    "lng": 24.5611,
    "relay": "https://relay-ua-ivano-frankivsk.macula.io:4433"
  },
  {
    "name": "the-silva-92",
    "city": "Uzhhorod",
    "country": "UA",
    "lat": 48.6208,
    "lng": 22.1879,
    "relay": "https://relay-ua-uzhhorod.macula.io:4433"
  },
  {
    "name": "lutsk-tech-93",
    "city": "Lutsk",
    "country": "UA",
    "lat": 50.8072,
    "lng": 25.2754,
    "relay": "https://relay-ua-lutsk.macula.io:4433"
  },
  {
    "name": "the-mueller-94",
    "city": "Khmelnytskyi",
    "country": "UA",
    "lat": 49.543,
    "lng": 26.9871,
    "relay": "https://relay-ua-khmelnytskyi.macula.io:4433"
  },
  {
    "name": "the-martin-95",
    "city": "Chernivtsi",
    "country": "UA",
    "lat": 48.1721,
    "lng": 25.9858,
    "relay": "https://relay-ua-chernivtsi.macula.io:4433"
  },
  {
    "name": "kropyvny-bakery-96",
    "city": "Kropyvnytskyi",
    "country": "UA",
    "lat": 48.4479,
    "lng": 32.3623,
    "relay": "https://relay-ua-kropyvnytskyi.macula.io:4433"
  },
  {
    "name": "the-rossi-97",
    "city": "Nikopol",
    "country": "UA",
    "lat": 47.5715,
    "lng": 34.5435,
    "relay": "https://relay-ua-nikopol.macula.io:4433"
  },
  {
    "name": "the-nowak-98",
    "city": "Melitopol",
    "country": "UA",
    "lat": 46.9089,
    "lng": 35.2175,
    "relay": "https://relay-ua-melitopol.macula.io:4433"
  },
  {
    "name": "severodo-gym-99",
    "city": "Severodonetsk",
    "country": "UA",
    "lat": 49.0684,
    "lng": 38.3937,
    "relay": "https://relay-ua-severodonetsk.macula.io:4433"
  },
  {
    "name": "the-johansson-100",
    "city": "London",
    "country": "GB",
    "lat": 51.3874,
    "lng": -0.1778,
    "relay": "https://relay-gb-london.macula.io:4433"
  },
  {
    "name": "the-hansen-101",
    "city": "Edinburgh",
    "country": "GB",
    "lat": 55.8933,
    "lng": -3.1883,
    "relay": "https://relay-gb-edinburgh.macula.io:4433"
  },
  {
    "name": "manchest-school-102",
    "city": "Manchester",
    "country": "GB",
    "lat": 53.4808,
    "lng": -2.1926,
    "relay": "https://relay-gb-manchester.macula.io:4433"
  },
  {
    "name": "the-popescu-103",
    "city": "Birmingham",
    "country": "GB",
    "lat": 52.5462,
    "lng": -1.7904,
    "relay": "https://relay-gb-birmingham.macula.io:4433"
  },
  {
    "name": "the-ivanov-104",
    "city": "Glasgow",
    "country": "GB",
    "lat": 55.9842,
    "lng": -4.1018,
    "relay": "https://relay-gb-glasgow.macula.io:4433"
  },
  {
    "name": "leeds-farm-105",
    "city": "Leeds",
    "country": "GB",
    "lat": 53.6808,
    "lng": -1.6991,
    "relay": "https://relay-gb-leeds.macula.io:4433"
  },
  {
    "name": "the-horvat-106",
    "city": "Bristol",
    "country": "GB",
    "lat": 51.3945,
    "lng": -2.6879,
    "relay": "https://relay-gb-bristol.macula.io:4433"
  },
  {
    "name": "the-berzins-107",
    "city": "Cardiff",
    "country": "GB",
    "lat": 51.4816,
    "lng": -3.2291,
    "relay": "https://relay-gb-cardiff.macula.io:4433"
  },
  {
    "name": "belfast-hotel-108",
    "city": "Belfast",
    "country": "GB",
    "lat": 54.6573,
    "lng": -5.9301,
    "relay": "https://relay-gb-belfast.macula.io:4433"
  },
  {
    "name": "the-tamm-109",
    "city": "Dublin",
    "country": "IE",
    "lat": 53.4698,
    "lng": -6.2103,
    "relay": "https://relay-ie-dublin.macula.io:4433"
  },
  {
    "name": "the-nagy-110",
    "city": "Cork",
    "country": "IE",
    "lat": 51.7785,
    "lng": -8.3756,
    "relay": "https://relay-ie-cork.macula.io:4433"
  },
  {
    "name": "paris-clinic-111",
    "city": "Paris",
    "country": "FR",
    "lat": 48.7966,
    "lng": 2.5022,
    "relay": "https://relay-fr-paris.macula.io:4433"
  },
  {
    "name": "the-silva-112",
    "city": "Lyon",
    "country": "FR",
    "lat": 45.764,
    "lng": 4.6857,
    "relay": "https://relay-fr-lyon.macula.io:4433"
  },
  {
    "name": "the-smith-113",
    "city": "Marseille",
    "country": "FR",
    "lat": 43.3565,
    "lng": 5.2698,
    "relay": "https://relay-fr-marseille.macula.io:4433"
  },
  {
    "name": "toulouse-solar-114",
    "city": "Toulouse",
    "country": "FR",
    "lat": 43.7247,
    "lng": 1.3942,
    "relay": "https://relay-fr-toulouse.macula.io:4433"
  },
  {
    "name": "the-martin-115",
    "city": "Nice",
    "country": "FR",
    "lat": 43.5902,
    "lng": 7.262,
    "relay": "https://relay-fr-nice.macula.io:4433"
  },
  {
    "name": "the-garcia-116",
    "city": "Nantes",
    "country": "FR",
    "lat": 47.1584,
    "lng": -1.5036,
    "relay": "https://relay-fr-nantes.macula.io:4433"
  },
  {
    "name": "strasbou-lab-117",
    "city": "Strasbourg",
    "country": "FR",
    "lat": 48.5734,
    "lng": 7.8521,
    "relay": "https://relay-fr-strasbourg.macula.io:4433"
  },
  {
    "name": "the-nowak-118",
    "city": "Bordeaux",
    "country": "FR",
    "lat": 44.8978,
    "lng": -0.4292,
    "relay": "https://relay-fr-bordeaux.macula.io:4433"
  },
  {
    "name": "the-shevchenko-119",
    "city": "Lille",
    "country": "FR",
    "lat": 50.7492,
    "lng": 2.9073,
    "relay": "https://relay-fr-lille.macula.io:4433"
  },
  {
    "name": "brussels-cafe-120",
    "city": "Brussels",
    "country": "BE",
    "lat": 50.7303,
    "lng": 4.2517,
    "relay": "https://relay-be-brussels.macula.io:4433"
  },
  {
    "name": "the-hansen-121",
    "city": "Antwerp",
    "country": "BE",
    "lat": 51.1594,
    "lng": 4.3525,
    "relay": "https://relay-be-antwerp.macula.io:4433"
  },
  {
    "name": "the-korhonen-122",
    "city": "Ghent",
    "country": "BE",
    "lat": 51.0543,
    "lng": 3.7174,
    "relay": "https://relay-be-ghent.macula.io:4433"
  },
  {
    "name": "liege-tech-123",
    "city": "Liege",
    "country": "BE",
    "lat": 50.6892,
    "lng": 5.6297,
    "relay": "https://relay-be-liege.macula.io:4433"
  },
  {
    "name": "the-ivanov-124",
    "city": "Charleroi",
    "country": "BE",
    "lat": 50.5308,
    "lng": 4.5446,
    "relay": "https://relay-be-charleroi.macula.io:4433"
  },
  {
    "name": "the-papadopoulos-125",
    "city": "Amsterdam",
    "country": "NL",
    "lat": 52.2476,
    "lng": 5.0541,
    "relay": "https://relay-nl-amsterdam.macula.io:4433"
  },
  {
    "name": "rotterda-bakery-126",
    "city": "Rotterdam",
    "country": "NL",
    "lat": 51.8644,
    "lng": 4.3277,
    "relay": "https://relay-nl-rotterdam.macula.io:4433"
  },
  {
    "name": "the-berzins-127",
    "city": "Utrecht",
    "country": "NL",
    "lat": 52.0907,
    "lng": 5.0214,
    "relay": "https://relay-nl-utrecht.macula.io:4433"
  },
  {
    "name": "the-kazlauskas-128",
    "city": "Eindhoven",
    "country": "NL",
    "lat": 51.5016,
    "lng": 5.4197,
    "relay": "https://relay-nl-eindhoven.macula.io:4433"
  },
  {
    "name": "groninge-gym-129",
    "city": "Groningen",
    "country": "NL",
    "lat": 53.3394,
    "lng": 6.5665,
    "relay": "https://relay-nl-groningen.macula.io:4433"
  },
  {
    "name": "the-nagy-130",
    "city": "Den Haag",
    "country": "NL",
    "lat": 51.9505,
    "lng": 4.3507,
    "relay": "https://relay-nl-den-haag.macula.io:4433"
  },
  {
    "name": "the-novak-131",
    "city": "Luxembourg",
    "country": "LU",
    "lat": 49.5517,
    "lng": 6.23,
    "relay": "https://relay-lu-luxembourg.macula.io:4433"
  },
  {
    "name": "berlin-school-132",
    "city": "Berlin",
    "country": "DE",
    "lat": 52.52,
    "lng": 13.555,
    "relay": "https://relay-de-berlin.macula.io:4433"
  },
  {
    "name": "the-smith-133",
    "city": "Munich",
    "country": "DE",
    "lat": 48.1951,
    "lng": 11.432,
    "relay": "https://relay-de-munich.macula.io:4433"
  },
  {
    "name": "the-mueller-134",
    "city": "Hamburg",
    "country": "DE",
    "lat": 53.6711,
    "lng": 9.8937,
    "relay": "https://relay-de-hamburg.macula.io:4433"
  },
  {
    "name": "frankfur-farm-135",
    "city": "Frankfurt",
    "country": "DE",
    "lat": 49.9909,
    "lng": 8.6321,
    "relay": "https://relay-de-frankfurt.macula.io:4433"
  },
  {
    "name": "the-garcia-136",
    "city": "Cologne",
    "country": "DE",
    "lat": 50.8775,
    "lng": 6.9603,
    "relay": "https://relay-de-cologne.macula.io:4433"
  },
  {
    "name": "the-rossi-137",
    "city": "Stuttgart",
    "country": "DE",
    "lat": 48.7758,
    "lng": 9.2329,
    "relay": "https://relay-de-stuttgart.macula.io:4433"
  },
  {
    "name": "dusseldo-hotel-138",
    "city": "Dusseldorf",
    "country": "DE",
    "lat": 51.2877,
    "lng": 6.8735,
    "relay": "https://relay-de-dusseldorf.macula.io:4433"
  },
  {
    "name": "the-shevchenko-139",
    "city": "Leipzig",
    "country": "DE",
    "lat": 51.4597,
    "lng": 12.5231,
    "relay": "https://relay-de-leipzig.macula.io:4433"
  },
  {
    "name": "the-johansson-140",
    "city": "Dresden",
    "country": "DE",
    "lat": 50.9304,
    "lng": 13.5873,
    "relay": "https://relay-de-dresden.macula.io:4433"
  },
  {
    "name": "nurember-clinic-141",
    "city": "Nuremberg",
    "country": "DE",
    "lat": 49.3921,
    "lng": 10.9767,
    "relay": "https://relay-de-nuremberg.macula.io:4433"
  },
  {
    "name": "the-korhonen-142",
    "city": "Zurich",
    "country": "CH",
    "lat": 47.3769,
    "lng": 8.4917,
    "relay": "https://relay-ch-zurich.macula.io:4433"
  },
  {
    "name": "the-popescu-143",
    "city": "Geneva",
    "country": "CH",
    "lat": 46.2644,
    "lng": 6.1432,
    "relay": "https://relay-ch-geneva.macula.io:4433"
  },
  {
    "name": "bern-solar-144",
    "city": "Bern",
    "country": "CH",
    "lat": 47.068,
    "lng": 7.4974,
    "relay": "https://relay-ch-bern.macula.io:4433"
  },
  {
    "name": "the-papadopoulos-145",
    "city": "Vienna",
    "country": "AT",
    "lat": 48.0882,
    "lng": 16.4738,
    "relay": "https://relay-at-vienna.macula.io:4433"
  },
  {
    "name": "the-horvat-146",
    "city": "Graz",
    "country": "AT",
    "lat": 47.0107,
    "lng": 15.5895,
    "relay": "https://relay-at-graz.macula.io:4433"
  },
  {
    "name": "salzburg-lab-147",
    "city": "Salzburg",
    "country": "AT",
    "lat": 47.8095,
    "lng": 12.905,
    "relay": "https://relay-at-salzburg.macula.io:4433"
  },
  {
    "name": "the-kazlauskas-148",
    "city": "Madrid",
    "country": "ES",
    "lat": 40.4768,
    "lng": -3.8038,
    "relay": "https://relay-es-madrid.macula.io:4433"
  },
  {
    "name": "the-tamm-149",
    "city": "Barcelona",
    "country": "ES",
    "lat": 41.5051,
    "lng": 2.1234,
    "relay": "https://relay-es-barcelona.macula.io:4433"
  },
  {
    "name": "valencia-cafe-150",
    "city": "Valencia",
    "country": "ES",
    "lat": 39.3499,
    "lng": -0.3763,
    "relay": "https://relay-es-valencia.macula.io:4433"
  },
  {
    "name": "the-novak-151",
    "city": "Seville",
    "country": "ES",
    "lat": 37.3291,
    "lng": -5.9345,
    "relay": "https://relay-es-seville.macula.io:4433"
  },
  {
    "name": "the-silva-152",
    "city": "Bilbao",
    "country": "ES",
    "lat": 43.263,
    "lng": -2.835,
    "relay": "https://relay-es-bilbao.macula.io:4433"
  },
  {
    "name": "malaga-tech-153",
    "city": "Malaga",
    "country": "ES",
    "lat": 36.7813,
    "lng": -4.2714,
    "relay": "https://relay-es-malaga.macula.io:4433"
  },
  {
    "name": "the-mueller-154",
    "city": "Lisbon",
    "country": "PT",
    "lat": 38.8423,
    "lng": -9.2893,
    "relay": "https://relay-pt-lisbon.macula.io:4433"
  },
  {
    "name": "the-martin-155",
    "city": "Porto",
    "country": "PT",
    "lat": 41.0379,
    "lng": -8.7291,
    "relay": "https://relay-pt-porto.macula.io:4433"
  },
  {
    "name": "rome-bakery-156",
    "city": "Rome",
    "country": "IT",
    "lat": 41.8428,
    "lng": 12.4464,
    "relay": "https://relay-it-rome.macula.io:4433"
  },
  {
    "name": "the-rossi-157",
    "city": "Milan",
    "country": "IT",
    "lat": 45.4642,
    "lng": 9.19,
    "relay": "https://relay-it-milan.macula.io:4433"
  },
  {
    "name": "the-nowak-158",
    "city": "Naples",
    "country": "IT",
    "lat": 40.9118,
    "lng": 14.3181,
    "relay": "https://relay-it-naples.macula.io:4433"
  },
  {
    "name": "turin-gym-159",
    "city": "Turin",
    "country": "IT",
    "lat": 45.1903,
    "lng": 7.7869,
    "relay": "https://relay-it-turin.macula.io:4433"
  },
  {
    "name": "the-johansson-160",
    "city": "Florence",
    "country": "IT",
    "lat": 43.6496,
    "lng": 11.4058,
    "relay": "https://relay-it-florence.macula.io:4433"
  },
  {
    "name": "the-hansen-161",
    "city": "Venice",
    "country": "IT",
    "lat": 45.3808,
    "lng": 12.1655,
    "relay": "https://relay-it-venice.macula.io:4433"
  },
  {
    "name": "palermo-school-162",
    "city": "Palermo",
    "country": "IT",
    "lat": 38.1157,
    "lng": 13.2615,
    "relay": "https://relay-it-palermo.macula.io:4433"
  },
  {
    "name": "the-popescu-163",
    "city": "Zagreb",
    "country": "HR",
    "lat": 45.875,
    "lng": 15.9319,
    "relay": "https://relay-hr-zagreb.macula.io:4433"
  },
  {
    "name": "the-ivanov-164",
    "city": "Ljubljana",
    "country": "SI",
    "lat": 46.1769,
    "lng": 14.5058,
    "relay": "https://relay-si-ljubljana.macula.io:4433"
  },
  {
    "name": "belgrade-farm-165",
    "city": "Belgrade",
    "country": "RS",
    "lat": 44.6666,
    "lng": 20.4989,
    "relay": "https://relay-rs-belgrade.macula.io:4433"
  },
  {
    "name": "the-horvat-166",
    "city": "Sarajevo",
    "country": "BA",
    "lat": 43.7963,
    "lng": 18.5131,
    "relay": "https://relay-ba-sarajevo.macula.io:4433"
  },
  {
    "name": "the-berzins-167",
    "city": "Podgorica",
    "country": "ME",
    "lat": 42.4304,
    "lng": 19.4094,
    "relay": "https://relay-me-podgorica.macula.io:4433"
  },
  {
    "name": "tirana-hotel-168",
    "city": "Tirana",
    "country": "AL",
    "lat": 41.3875,
    "lng": 19.6687,
    "relay": "https://relay-al-tirana.macula.io:4433"
  },
  {
    "name": "the-tamm-169",
    "city": "Skopje",
    "country": "MK",
    "lat": 42.1173,
    "lng": 21.328,
    "relay": "https://relay-mk-skopje.macula.io:4433"
  },
  {
    "name": "the-nagy-170",
    "city": "Valletta",
    "country": "MT",
    "lat": 35.7789,
    "lng": 14.4646,
    "relay": "https://relay-mt-valletta.macula.io:4433"
  },
  {
    "name": "nicosia-clinic-171",
    "city": "Nicosia",
    "country": "CY",
    "lat": 35.1256,
    "lng": 33.3823,
    "relay": "https://relay-cy-nicosia.macula.io:4433"
  },
  {
    "name": "the-silva-172",
    "city": "Reykjavik",
    "country": "IS",
    "lat": 64.1466,
    "lng": -21.8926,
    "relay": "https://relay-is-reykjavik.macula.io:4433"
  },
  {
    "name": "the-smith-173",
    "city": "Bari",
    "country": "IT",
    "lat": 41.1771,
    "lng": 16.9719,
    "relay": "https://relay-it-bari.macula.io:4433"
  },
  {
    "name": "athens-solar-174",
    "city": "Athens",
    "country": "GR",
    "lat": 38.1038,
    "lng": 23.8775,
    "relay": "https://relay-gr-athens.macula.io:4433"
  },
  {
    "name": "the-martin-175",
    "city": "Helsinki",
    "country": "FI",
    "lat": 60.0499,
    "lng": 24.7884,
    "relay": "https://relay-fi-helsinki.macula.io:4433"
  },
  {
    "name": "the-garcia-176",
    "city": "Tampere",
    "country": "FI",
    "lat": 61.4378,
    "lng": 23.661,
    "relay": "https://relay-fi-tampere.macula.io:4433"
  },
  {
    "name": "turku-lab-177",
    "city": "Turku",
    "country": "FI",
    "lat": 60.4518,
    "lng": 22.2166,
    "relay": "https://relay-fi-turku.macula.io:4433"
  },
  {
    "name": "the-nowak-178",
    "city": "Oulu",
    "country": "FI",
    "lat": 65.0721,
    "lng": 25.4651,
    "relay": "https://relay-fi-oulu.macula.io:4433"
  },
  {
    "name": "the-shevchenko-179",
    "city": "Stockholm",
    "country": "SE",
    "lat": 59.4493,
    "lng": 18.1186,
    "relay": "https://relay-se-stockholm.macula.io:4433"
  },
  {
    "name": "gothenbu-cafe-180",
    "city": "Gothenburg",
    "country": "SE",
    "lat": 57.5889,
    "lng": 12.0746,
    "relay": "https://relay-se-gothenburg.macula.io:4433"
  },
  {
    "name": "the-hansen-181",
    "city": "Malmo",
    "country": "SE",
    "lat": 55.545,
    "lng": 13.1538,
    "relay": "https://relay-se-malmo.macula.io:4433"
  },
  {
    "name": "the-korhonen-182",
    "city": "Uppsala",
    "country": "SE",
    "lat": 59.8586,
    "lng": 17.4889,
    "relay": "https://relay-se-uppsala.macula.io:4433"
  },
  {
    "name": "oslo-tech-183",
    "city": "Oslo",
    "country": "NO",
    "lat": 59.9739,
    "lng": 10.6522,
    "relay": "https://relay-no-oslo.macula.io:4433"
  },
  {
    "name": "the-ivanov-184",
    "city": "Bergen",
    "country": "NO",
    "lat": 60.5113,
    "lng": 5.2721,
    "relay": "https://relay-no-bergen.macula.io:4433"
  },
  {
    "name": "the-papadopoulos-185",
    "city": "Trondheim",
    "country": "NO",
    "lat": 63.3105,
    "lng": 10.3951,
    "relay": "https://relay-no-trondheim.macula.io:4433"
  },
  {
    "name": "copenhag-bakery-186",
    "city": "Copenhagen",
    "country": "DK",
    "lat": 55.6161,
    "lng": 12.6183,
    "relay": "https://relay-dk-copenhagen.macula.io:4433"
  },
  {
    "name": "the-berzins-187",
    "city": "Aarhus",
    "country": "DK",
    "lat": 56.1629,
    "lng": 10.3039,
    "relay": "https://relay-dk-aarhus.macula.io:4433"
  },
  {
    "name": "the-kazlauskas-188",
    "city": "Tallinn",
    "country": "EE",
    "lat": 59.497,
    "lng": 24.9036,
    "relay": "https://relay-ee-tallinn.macula.io:4433"
  },
  {
    "name": "tartu-gym-189",
    "city": "Tartu",
    "country": "EE",
    "lat": 58.498,
    "lng": 26.579,
    "relay": "https://relay-ee-tartu.macula.io:4433"
  },
  {
    "name": "the-nagy-190",
    "city": "Riga",
    "country": "LV",
    "lat": 56.8296,
    "lng": 24.0052,
    "relay": "https://relay-lv-riga.macula.io:4433"
  },
  {
    "name": "the-novak-191",
    "city": "Daugavpils",
    "country": "LV",
    "lat": 55.8149,
    "lng": 26.4856,
    "relay": "https://relay-lv-daugavpils.macula.io:4433"
  },
  {
    "name": "vilnius-school-192",
    "city": "Vilnius",
    "country": "LT",
    "lat": 54.6872,
    "lng": 25.2797,
    "relay": "https://relay-lt-vilnius.macula.io:4433"
  },
  {
    "name": "the-smith-193",
    "city": "Kaunas",
    "country": "LT",
    "lat": 54.9585,
    "lng": 23.9536,
    "relay": "https://relay-lt-kaunas.macula.io:4433"
  },
  {
    "name": "the-mueller-194",
    "city": "Klaipeda",
    "country": "LT",
    "lat": 55.8233,
    "lng": 21.2443,
    "relay": "https://relay-lt-klaipeda.macula.io:4433"
  },
  {
    "name": "warsaw-farm-195",
    "city": "Warsaw",
    "country": "PL",
    "lat": 52.1097,
    "lng": 21.1622,
    "relay": "https://relay-pl-warsaw.macula.io:4433"
  },
  {
    "name": "the-garcia-196",
    "city": "Krakow",
    "country": "PL",
    "lat": 50.0047,
    "lng": 19.795,
    "relay": "https://relay-pl-krakow.macula.io:4433"
  },
  {
    "name": "the-rossi-197",
    "city": "Gdansk",
    "country": "PL",
    "lat": 54.352,
    "lng": 18.5466,
    "relay": "https://relay-pl-gdansk.macula.io:4433"
  },
  {
    "name": "wroclaw-hotel-198",
    "city": "Wroclaw",
    "country": "PL",
    "lat": 51.1679,
    "lng": 16.9885,
    "relay": "https://relay-pl-wroclaw.macula.io:4433"
  },
  {
    "name": "the-shevchenko-199",
    "city": "Poznan",
    "country": "PL",
    "lat": 52.5264,
    "lng": 16.9252,
    "relay": "https://relay-pl-poznan.macula.io:4433"
  },
  {
    "name": "the-johansson-200",
    "city": "Lodz",
    "country": "PL",
    "lat": 51.6392,
    "lng": 19.506,
    "relay": "https://relay-pl-lodz.macula.io:4433"
  },
  {
    "name": "szczecin-clinic-201",
    "city": "Szczecin",
    "country": "PL",
    "lat": 53.3685,
    "lng": 14.6528,
    "relay": "https://relay-pl-szczecin.macula.io:4433"
  },
  {
    "name": "the-korhonen-202",
    "city": "Lublin",
    "country": "PL",
    "lat": 51.2465,
    "lng": 22.7184,
    "relay": "https://relay-pl-lublin.macula.io:4433"
  },
  {
    "name": "the-popescu-203",
    "city": "Katowice",
    "country": "PL",
    "lat": 50.3249,
    "lng": 18.8738,
    "relay": "https://relay-pl-katowice.macula.io:4433"
  },
  {
    "name": "rzeszow-solar-204",
    "city": "Rzeszow",
    "country": "PL",
    "lat": 50.1612,
    "lng": 21.8991,
    "relay": "https://relay-pl-rzeszow.macula.io:4433"
  },
  {
    "name": "the-papadopoulos-205",
    "city": "Prague",
    "country": "CZ",
    "lat": 49.9555,
    "lng": 14.3878,
    "relay": "https://relay-cz-prague.macula.io:4433"
  },
  {
    "name": "the-horvat-206",
    "city": "Brno",
    "country": "CZ",
    "lat": 49.1351,
    "lng": 16.6068,
    "relay": "https://relay-cz-brno.macula.io:4433"
  },
  {
    "name": "bratisla-lab-207",
    "city": "Bratislava",
    "country": "SK",
    "lat": 48.1486,
    "lng": 17.1577,
    "relay": "https://relay-sk-bratislava.macula.io:4433"
  },
  {
    "name": "the-kazlauskas-208",
    "city": "Kosice",
    "country": "SK",
    "lat": 48.7764,
    "lng": 21.3611,
    "relay": "https://relay-sk-kosice.macula.io:4433"
  },
  {
    "name": "the-tamm-209",
    "city": "Budapest",
    "country": "HU",
    "lat": 47.6179,
    "lng": 19.1902,
    "relay": "https://relay-hu-budapest.macula.io:4433"
  },
  {
    "name": "debrecen-cafe-210",
    "city": "Debrecen",
    "country": "HU",
    "lat": 47.4116,
    "lng": 21.4773,
    "relay": "https://relay-hu-debrecen.macula.io:4433"
  },
  {
    "name": "the-novak-211",
    "city": "Bucharest",
    "country": "RO",
    "lat": 44.3668,
    "lng": 26.0025,
    "relay": "https://relay-ro-bucharest.macula.io:4433"
  },
  {
    "name": "the-silva-212",
    "city": "Cluj-Napoca",
    "country": "RO",
    "lat": 46.7712,
    "lng": 23.5736,
    "relay": "https://relay-ro-cluj.macula.io:4433"
  },
  {
    "name": "timisoar-tech-213",
    "city": "Timisoara",
    "country": "RO",
    "lat": 45.8089,
    "lng": 21.2087,
    "relay": "https://relay-ro-timisoara.macula.io:4433"
  },
  {
    "name": "the-mueller-214",
    "city": "Iasi",
    "country": "RO",
    "lat": 47.2785,
    "lng": 27.6514,
    "relay": "https://relay-ro-iasi.macula.io:4433"
  },
  {
    "name": "the-martin-215",
    "city": "Constanta",
    "country": "RO",
    "lat": 44.0398,
    "lng": 28.7348,
    "relay": "https://relay-ro-constanta.macula.io:4433"
  },
  {
    "name": "brasov-bakery-216",
    "city": "Brasov",
    "country": "RO",
    "lat": 45.5827,
    "lng": 25.7387,
    "relay": "https://relay-ro-brasov.macula.io:4433"
  },
  {
    "name": "the-rossi-217",
    "city": "Sofia",
    "country": "BG",
    "lat": 42.6977,
    "lng": 23.1719,
    "relay": "https://relay-bg-sofia.macula.io:4433"
  },
  {
    "name": "the-nowak-218",
    "city": "Plovdiv",
    "country": "BG",
    "lat": 42.1954,
    "lng": 24.6453,
    "relay": "https://relay-bg-plovdiv.macula.io:4433"
  },
  {
    "name": "thessalo-gym-219",
    "city": "Thessaloniki",
    "country": "GR",
    "lat": 40.7601,
    "lng": 22.8944,
    "relay": "https://relay-gr-thessaloniki.macula.io:4433"
  },
  {
    "name": "the-johansson-220",
    "city": "Chisinau",
    "country": "MD",
    "lat": 46.8905,
    "lng": 28.8638,
    "relay": "https://relay-md-chisinau.macula.io:4433"
  },
  {
    "name": "the-hansen-221",
    "city": "Kyiv",
    "country": "UA",
    "lat": 50.3901,
    "lng": 30.5734,
    "relay": "https://relay-ua-kyiv.macula.io:4433"
  },
  {
    "name": "lviv-school-222",
    "city": "Lviv",
    "country": "UA",
    "lat": 49.8397,
    "lng": 24.1297,
    "relay": "https://relay-ua-lviv.macula.io:4433"
  },
  {
    "name": "the-popescu-223",
    "city": "Odessa",
    "country": "UA",
    "lat": 46.5425,
    "lng": 30.8733,
    "relay": "https://relay-ua-odessa.macula.io:4433"
  },
  {
    "name": "the-ivanov-224",
    "city": "Kharkiv",
    "country": "UA",
    "lat": 50.1135,
    "lng": 36.0804,
    "relay": "https://relay-ua-kharkiv.macula.io:4433"
  },
  {
    "name": "dnipro-farm-225",
    "city": "Dnipro",
    "country": "UA",
    "lat": 48.3447,
    "lng": 34.9462,
    "relay": "https://relay-ua-dnipro.macula.io:4433"
  },
  {
    "name": "the-horvat-226",
    "city": "Zaporizhzhia",
    "country": "UA",
    "lat": 47.7788,
    "lng": 35.0896,
    "relay": "https://relay-ua-zaporizhzhia.macula.io:4433"
  },
  {
    "name": "the-berzins-227",
    "city": "Vinnytsia",
    "country": "UA",
    "lat": 49.2331,
    "lng": 28.4682,
    "relay": "https://relay-ua-vinnytsia.macula.io:4433"
  },
  {
    "name": "poltava-hotel-228",
    "city": "Poltava",
    "country": "UA",
    "lat": 49.6483,
    "lng": 34.6014,
    "relay": "https://relay-ua-poltava.macula.io:4433"
  },
  {
    "name": "the-tamm-229",
    "city": "Chernihiv",
    "country": "UA",
    "lat": 51.6182,
    "lng": 31.3893,
    "relay": "https://relay-ua-chernihiv.macula.io:4433"
  },
  {
    "name": "the-nagy-230",
    "city": "Sumy",
    "country": "UA",
    "lat": 50.7877,
    "lng": 34.9481,
    "relay": "https://relay-ua-sumy.macula.io:4433"
  },
  {
    "name": "zhytomyr-clinic-231",
    "city": "Zhytomyr",
    "country": "UA",
    "lat": 50.1947,
    "lng": 28.5087,
    "relay": "https://relay-ua-zhytomyr.macula.io:4433"
  },
  {
    "name": "the-silva-232",
    "city": "Rivne",
    "country": "UA",
    "lat": 50.6199,
    "lng": 26.1516,
    "relay": "https://relay-ua-rivne.macula.io:4433"
  },
  {
    "name": "the-smith-233",
    "city": "Ternopil",
    "country": "UA",
    "lat": 49.6135,
    "lng": 25.5448,
    "relay": "https://relay-ua-ternopil.macula.io:4433"
  },
  {
    "name": "cherkasy-solar-234",
    "city": "Cherkasy",
    "country": "UA",
    "lat": 49.5644,
    "lng": 32.0598,
    "relay": "https://relay-ua-cherkasy.macula.io:4433"
  },
  {
    "name": "the-martin-235",
    "city": "Mykolaiv",
    "country": "UA",
    "lat": 46.855,
    "lng": 32.0446,
    "relay": "https://relay-ua-mykolaiv.macula.io:4433"
  },
  {
    "name": "the-garcia-236",
    "city": "Kherson",
    "country": "UA",
    "lat": 46.5754,
    "lng": 32.7169,
    "relay": "https://relay-ua-kherson.macula.io:4433"
  },
  {
    "name": "donetsk-lab-237",
    "city": "Donetsk",
    "country": "UA",
    "lat": 48.0159,
    "lng": 37.9529,
    "relay": "https://relay-ua-donetsk.macula.io:4433"
  },
  {
    "name": "the-nowak-238",
    "city": "Luhansk",
    "country": "UA",
    "lat": 48.634,
    "lng": 39.1578,
    "relay": "https://relay-ua-luhansk.macula.io:4433"
  },
  {
    "name": "the-shevchenko-239",
    "city": "Mariupol",
    "country": "UA",
    "lat": 47.2158,
    "lng": 37.4494,
    "relay": "https://relay-ua-mariupol.macula.io:4433"
  },
  {
    "name": "kramator-cafe-240",
    "city": "Kramatorsk",
    "country": "UA",
    "lat": 48.6164,
    "lng": 37.5058,
    "relay": "https://relay-ua-kramatorsk.macula.io:4433"
  },
  {
    "name": "the-hansen-241",
    "city": "Ivano-Frankivsk",
    "country": "UA",
    "lat": 48.8626,
    "lng": 24.7111,
    "relay": "https://relay-ua-ivano-frankivsk.macula.io:4433"
  },
  {
    "name": "the-korhonen-242",
    "city": "Uzhhorod",
    "country": "UA",
    "lat": 48.6208,
    "lng": 22.3379,
    "relay": "https://relay-ua-uzhhorod.macula.io:4433"
  },
  {
    "name": "lutsk-tech-243",
    "city": "Lutsk",
    "country": "UA",
    "lat": 50.8072,
    "lng": 25.4254,
    "relay": "https://relay-ua-lutsk.macula.io:4433"
  },
  {
    "name": "the-ivanov-244",
    "city": "Khmelnytskyi",
    "country": "UA",
    "lat": 49.543,
    "lng": 27.1371,
    "relay": "https://relay-ua-khmelnytskyi.macula.io:4433"
  },
  {
    "name": "the-papadopoulos-245",
    "city": "Chernivtsi",
    "country": "UA",
    "lat": 48.1721,
    "lng": 25.7858,
    "relay": "https://relay-ua-chernivtsi.macula.io:4433"
  },
  {
    "name": "kropyvny-bakery-246",
    "city": "Kropyvnytskyi",
    "country": "UA",
    "lat": 48.4479,
    "lng": 32.1623,
    "relay": "https://relay-ua-kropyvnytskyi.macula.io:4433"
  },
  {
    "name": "the-berzins-247",
    "city": "Nikopol",
    "country": "UA",
    "lat": 47.5715,
    "lng": 34.3435,
    "relay": "https://relay-ua-nikopol.macula.io:4433"
  },
  {
    "name": "the-kazlauskas-248",
    "city": "Melitopol",
    "country": "UA",
    "lat": 46.9089,
    "lng": 35.3675,
    "relay": "https://relay-ua-melitopol.macula.io:4433"
  },
  {
    "name": "severodo-gym-249",
    "city": "Severodonetsk",
    "country": "UA",
    "lat": 49.0684,
    "lng": 38.5437,
    "relay": "https://relay-ua-severodonetsk.macula.io:4433"
  },
  {
    "name": "the-nagy-250",
    "city": "London",
    "country": "GB",
    "lat": 51.3874,
    "lng": -0.0278,
    "relay": "https://relay-gb-london.macula.io:4433"
  },
  {
    "name": "the-novak-251",
    "city": "Edinburgh",
    "country": "GB",
    "lat": 55.8933,
    "lng": -3.0383,
    "relay": "https://relay-gb-edinburgh.macula.io:4433"
  },
  {
    "name": "manchest-school-252",
    "city": "Manchester",
    "country": "GB",
    "lat": 53.4808,
    "lng": -2.3926,
    "relay": "https://relay-gb-manchester.macula.io:4433"
  },
  {
    "name": "the-smith-253",
    "city": "Birmingham",
    "country": "GB",
    "lat": 52.5462,
    "lng": -1.9904,
    "relay": "https://relay-gb-birmingham.macula.io:4433"
  },
  {
    "name": "the-mueller-254",
    "city": "Glasgow",
    "country": "GB",
    "lat": 55.9842,
    "lng": -4.3018,
    "relay": "https://relay-gb-glasgow.macula.io:4433"
  },
  {
    "name": "leeds-farm-255",
    "city": "Leeds",
    "country": "GB",
    "lat": 53.6808,
    "lng": -1.5491,
    "relay": "https://relay-gb-leeds.macula.io:4433"
  },
  {
    "name": "the-garcia-256",
    "city": "Bristol",
    "country": "GB",
    "lat": 51.3945,
    "lng": -2.5379,
    "relay": "https://relay-gb-bristol.macula.io:4433"
  },
  {
    "name": "the-rossi-257",
    "city": "Cardiff",
    "country": "GB",
    "lat": 51.4816,
    "lng": -3.0791,
    "relay": "https://relay-gb-cardiff.macula.io:4433"
  },
  {
    "name": "belfast-hotel-258",
    "city": "Belfast",
    "country": "GB",
    "lat": 54.6573,
    "lng": -5.7801,
    "relay": "https://relay-gb-belfast.macula.io:4433"
  },
  {
    "name": "the-shevchenko-259",
    "city": "Dublin",
    "country": "IE",
    "lat": 53.4698,
    "lng": -6.4103,
    "relay": "https://relay-ie-dublin.macula.io:4433"
  },
  {
    "name": "the-johansson-260",
    "city": "Cork",
    "country": "IE",
    "lat": 51.7785,
    "lng": -8.5756,
    "relay": "https://relay-ie-cork.macula.io:4433"
  },
  {
    "name": "paris-clinic-261",
    "city": "Paris",
    "country": "FR",
    "lat": 48.7966,
    "lng": 2.3022,
    "relay": "https://relay-fr-paris.macula.io:4433"
  },
  {
    "name": "the-korhonen-262",
    "city": "Lyon",
    "country": "FR",
    "lat": 45.764,
    "lng": 4.8357,
    "relay": "https://relay-fr-lyon.macula.io:4433"
  },
  {
    "name": "the-popescu-263",
    "city": "Marseille",
    "country": "FR",
    "lat": 43.3565,
    "lng": 5.4198,
    "relay": "https://relay-fr-marseille.macula.io:4433"
  },
  {
    "name": "toulouse-solar-264",
    "city": "Toulouse",
    "country": "FR",
    "lat": 43.7247,
    "lng": 1.5442,
    "relay": "https://relay-fr-toulouse.macula.io:4433"
  },
  {
    "name": "the-papadopoulos-265",
    "city": "Nice",
    "country": "FR",
    "lat": 43.5902,
    "lng": 7.412,
    "relay": "https://relay-fr-nice.macula.io:4433"
  },
  {
    "name": "the-horvat-266",
    "city": "Nantes",
    "country": "FR",
    "lat": 47.1584,
    "lng": -1.7036,
    "relay": "https://relay-fr-nantes.macula.io:4433"
  },
  {
    "name": "strasbou-lab-267",
    "city": "Strasbourg",
    "country": "FR",
    "lat": 48.5734,
    "lng": 7.6521,
    "relay": "https://relay-fr-strasbourg.macula.io:4433"
  },
  {
    "name": "the-kazlauskas-268",
    "city": "Bordeaux",
    "country": "FR",
    "lat": 44.8978,
    "lng": -0.6292,
    "relay": "https://relay-fr-bordeaux.macula.io:4433"
  },
  {
    "name": "the-tamm-269",
    "city": "Lille",
    "country": "FR",
    "lat": 50.7492,
    "lng": 3.0573,
    "relay": "https://relay-fr-lille.macula.io:4433"
  },
  {
    "name": "brussels-cafe-270",
    "city": "Brussels",
    "country": "BE",
    "lat": 50.7303,
    "lng": 4.4017,
    "relay": "https://relay-be-brussels.macula.io:4433"
  },
  {
    "name": "the-novak-271",
    "city": "Antwerp",
    "country": "BE",
    "lat": 51.1594,
    "lng": 4.5025,
    "relay": "https://relay-be-antwerp.macula.io:4433"
  },
  {
    "name": "the-silva-272",
    "city": "Ghent",
    "country": "BE",
    "lat": 51.0543,
    "lng": 3.8674,
    "relay": "https://relay-be-ghent.macula.io:4433"
  },
  {
    "name": "liege-tech-273",
    "city": "Liege",
    "country": "BE",
    "lat": 50.6892,
    "lng": 5.4297,
    "relay": "https://relay-be-liege.macula.io:4433"
  },
  {
    "name": "the-mueller-274",
    "city": "Charleroi",
    "country": "BE",
    "lat": 50.5308,
    "lng": 4.3446,
    "relay": "https://relay-be-charleroi.macula.io:4433"
  },
  {
    "name": "the-martin-275",
    "city": "Amsterdam",
    "country": "NL",
    "lat": 52.2476,
    "lng": 4.8541,
    "relay": "https://relay-nl-amsterdam.macula.io:4433"
  },
  {
    "name": "rotterda-bakery-276",
    "city": "Rotterdam",
    "country": "NL",
    "lat": 51.8644,
    "lng": 4.4777,
    "relay": "https://relay-nl-rotterdam.macula.io:4433"
  },
  {
    "name": "the-rossi-277",
    "city": "Utrecht",
    "country": "NL",
    "lat": 52.0907,
    "lng": 5.1714,
    "relay": "https://relay-nl-utrecht.macula.io:4433"
  },
  {
    "name": "the-nowak-278",
    "city": "Eindhoven",
    "country": "NL",
    "lat": 51.5016,
    "lng": 5.5697,
    "relay": "https://relay-nl-eindhoven.macula.io:4433"
  },
  {
    "name": "groninge-gym-279",
    "city": "Groningen",
    "country": "NL",
    "lat": 53.3394,
    "lng": 6.7165,
    "relay": "https://relay-nl-groningen.macula.io:4433"
  },
  {
    "name": "the-johansson-280",
    "city": "Den Haag",
    "country": "NL",
    "lat": 51.9505,
    "lng": 4.1507,
    "relay": "https://relay-nl-den-haag.macula.io:4433"
  },
  {
    "name": "the-hansen-281",
    "city": "Luxembourg",
    "country": "LU",
    "lat": 49.5517,
    "lng": 6.03,
    "relay": "https://relay-lu-luxembourg.macula.io:4433"
  },
  {
    "name": "berlin-school-282",
    "city": "Berlin",
    "country": "DE",
    "lat": 52.52,
    "lng": 13.355,
    "relay": "https://relay-de-berlin.macula.io:4433"
  },
  {
    "name": "the-popescu-283",
    "city": "Munich",
    "country": "DE",
    "lat": 48.1951,
    "lng": 11.582,
    "relay": "https://relay-de-munich.macula.io:4433"
  },
  {
    "name": "the-ivanov-284",
    "city": "Hamburg",
    "country": "DE",
    "lat": 53.6711,
    "lng": 10.0437,
    "relay": "https://relay-de-hamburg.macula.io:4433"
  },
  {
    "name": "frankfur-farm-285",
    "city": "Frankfurt",
    "country": "DE",
    "lat": 49.9909,
    "lng": 8.7821,
    "relay": "https://relay-de-frankfurt.macula.io:4433"
  },
  {
    "name": "the-horvat-286",
    "city": "Cologne",
    "country": "DE",
    "lat": 50.8775,
    "lng": 7.1103,
    "relay": "https://relay-de-cologne.macula.io:4433"
  },
  {
    "name": "the-berzins-287",
    "city": "Stuttgart",
    "country": "DE",
    "lat": 48.7758,
    "lng": 9.0329,
    "relay": "https://relay-de-stuttgart.macula.io:4433"
  },
  {
    "name": "dusseldo-hotel-288",
    "city": "Dusseldorf",
    "country": "DE",
    "lat": 51.2877,
    "lng": 6.6735,
    "relay": "https://relay-de-dusseldorf.macula.io:4433"
  },
  {
    "name": "the-tamm-289",
    "city": "Leipzig",
    "country": "DE",
    "lat": 51.4597,
    "lng": 12.3231,
    "relay": "https://relay-de-leipzig.macula.io:4433"
  },
  {
    "name": "the-nagy-290",
    "city": "Dresden",
    "country": "DE",
    "lat": 50.9304,
    "lng": 13.7373,
    "relay": "https://relay-de-dresden.macula.io:4433"
  },
  {
    "name": "nurember-clinic-291",
    "city": "Nuremberg",
    "country": "DE",
    "lat": 49.3921,
    "lng": 11.1267,
    "relay": "https://relay-de-nuremberg.macula.io:4433"
  },
  {
    "name": "the-silva-292",
    "city": "Zurich",
    "country": "CH",
    "lat": 47.3769,
    "lng": 8.6417,
    "relay": "https://relay-ch-zurich.macula.io:4433"
  },
  {
    "name": "the-smith-293",
    "city": "Geneva",
    "country": "CH",
    "lat": 46.2644,
    "lng": 6.2932,
    "relay": "https://relay-ch-geneva.macula.io:4433"
  },
  {
    "name": "bern-solar-294",
    "city": "Bern",
    "country": "CH",
    "lat": 47.068,
    "lng": 7.2974,
    "relay": "https://relay-ch-bern.macula.io:4433"
  },
  {
    "name": "the-martin-295",
    "city": "Vienna",
    "country": "AT",
    "lat": 48.0882,
    "lng": 16.2738,
    "relay": "https://relay-at-vienna.macula.io:4433"
  },
  {
    "name": "the-garcia-296",
    "city": "Graz",
    "country": "AT",
    "lat": 47.0107,
    "lng": 15.3895,
    "relay": "https://relay-at-graz.macula.io:4433"
  },
  {
    "name": "salzburg-lab-297",
    "city": "Salzburg",
    "country": "AT",
    "lat": 47.8095,
    "lng": 13.055,
    "relay": "https://relay-at-salzburg.macula.io:4433"
  },
  {
    "name": "the-nowak-298",
    "city": "Madrid",
    "country": "ES",
    "lat": 40.4768,
    "lng": -3.6538,
    "relay": "https://relay-es-madrid.macula.io:4433"
  },
  {
    "name": "the-shevchenko-299",
    "city": "Barcelona",
    "country": "ES",
    "lat": 41.5051,
    "lng": 2.2734,
    "relay": "https://relay-es-barcelona.macula.io:4433"
  },
  {
    "name": "valencia-cafe-300",
    "city": "Valencia",
    "country": "ES",
    "lat": 39.3499,
    "lng": -0.2263,
    "relay": "https://relay-es-valencia.macula.io:4433"
  },
  {
    "name": "the-hansen-301",
    "city": "Seville",
    "country": "ES",
    "lat": 37.3291,
    "lng": -6.1345,
    "relay": "https://relay-es-seville.macula.io:4433"
  },
  {
    "name": "the-korhonen-302",
    "city": "Bilbao",
    "country": "ES",
    "lat": 43.263,
    "lng": -3.035,
    "relay": "https://relay-es-bilbao.macula.io:4433"
  },
  {
    "name": "malaga-tech-303",
    "city": "Malaga",
    "country": "ES",
    "lat": 36.7813,
    "lng": -4.4714,
    "relay": "https://relay-es-malaga.macula.io:4433"
  },
  {
    "name": "the-ivanov-304",
    "city": "Lisbon",
    "country": "PT",
    "lat": 38.8423,
    "lng": -9.1393,
    "relay": "https://relay-pt-lisbon.macula.io:4433"
  },
  {
    "name": "the-papadopoulos-305",
    "city": "Porto",
    "country": "PT",
    "lat": 41.0379,
    "lng": -8.5791,
    "relay": "https://relay-pt-porto.macula.io:4433"
  },
  {
    "name": "rome-bakery-306",
    "city": "Rome",
    "country": "IT",
    "lat": 41.8428,
    "lng": 12.5964,
    "relay": "https://relay-it-rome.macula.io:4433"
  },
  {
    "name": "the-berzins-307",
    "city": "Milan",
    "country": "IT",
    "lat": 45.4642,
    "lng": 9.34,
    "relay": "https://relay-it-milan.macula.io:4433"
  },
  {
    "name": "the-kazlauskas-308",
    "city": "Naples",
    "country": "IT",
    "lat": 40.9118,
    "lng": 14.1181,
    "relay": "https://relay-it-naples.macula.io:4433"
  },
  {
    "name": "turin-gym-309",
    "city": "Turin",
    "country": "IT",
    "lat": 45.1903,
    "lng": 7.5869,
    "relay": "https://relay-it-turin.macula.io:4433"
  },
  {
    "name": "the-nagy-310",
    "city": "Florence",
    "country": "IT",
    "lat": 43.6496,
    "lng": 11.2058,
    "relay": "https://relay-it-florence.macula.io:4433"
  },
  {
    "name": "the-novak-311",
    "city": "Venice",
    "country": "IT",
    "lat": 45.3808,
    "lng": 12.3155,
    "relay": "https://relay-it-venice.macula.io:4433"
  },
  {
    "name": "palermo-school-312",
    "city": "Palermo",
    "country": "IT",
    "lat": 38.1157,
    "lng": 13.4115,
    "relay": "https://relay-it-palermo.macula.io:4433"
  },
  {
    "name": "the-smith-313",
    "city": "Zagreb",
    "country": "HR",
    "lat": 45.875,
    "lng": 16.0819,
    "relay": "https://relay-hr-zagreb.macula.io:4433"
  },
  {
    "name": "the-mueller-314",
    "city": "Ljubljana",
    "country": "SI",
    "lat": 46.1769,
    "lng": 14.6558,
    "relay": "https://relay-si-ljubljana.macula.io:4433"
  },
  {
    "name": "belgrade-farm-315",
    "city": "Belgrade",
    "country": "RS",
    "lat": 44.6666,
    "lng": 20.2989,
    "relay": "https://relay-rs-belgrade.macula.io:4433"
  },
  {
    "name": "the-garcia-316",
    "city": "Sarajevo",
    "country": "BA",
    "lat": 43.7963,
    "lng": 18.3131,
    "relay": "https://relay-ba-sarajevo.macula.io:4433"
  },
  {
    "name": "the-rossi-317",
    "city": "Podgorica",
    "country": "ME",
    "lat": 42.4304,
    "lng": 19.2094,
    "relay": "https://relay-me-podgorica.macula.io:4433"
  },
  {
    "name": "tirana-hotel-318",
    "city": "Tirana",
    "country": "AL",
    "lat": 41.3875,
    "lng": 19.8187,
    "relay": "https://relay-al-tirana.macula.io:4433"
  },
  {
    "name": "the-shevchenko-319",
    "city": "Skopje",
    "country": "MK",
    "lat": 42.1173,
    "lng": 21.478,
    "relay": "https://relay-mk-skopje.macula.io:4433"
  },
  {
    "name": "the-johansson-320",
    "city": "Valletta",
    "country": "MT",
    "lat": 35.7789,
    "lng": 14.6146,
    "relay": "https://relay-mt-valletta.macula.io:4433"
  },
  {
    "name": "nicosia-clinic-321",
    "city": "Nicosia",
    "country": "CY",
    "lat": 35.1256,
    "lng": 33.5323,
    "relay": "https://relay-cy-nicosia.macula.io:4433"
  },
  {
    "name": "the-korhonen-322",
    "city": "Reykjavik",
    "country": "IS",
    "lat": 64.1466,
    "lng": -22.0926,
    "relay": "https://relay-is-reykjavik.macula.io:4433"
  },
  {
    "name": "the-popescu-323",
    "city": "Bari",
    "country": "IT",
    "lat": 41.1771,
    "lng": 16.7719,
    "relay": "https://relay-it-bari.macula.io:4433"
  },
  {
    "name": "athens-solar-324",
    "city": "Athens",
    "country": "GR",
    "lat": 38.1038,
    "lng": 23.6775,
    "relay": "https://relay-gr-athens.macula.io:4433"
  },
  {
    "name": "the-papadopoulos-325",
    "city": "Helsinki",
    "country": "FI",
    "lat": 60.0499,
    "lng": 24.9384,
    "relay": "https://relay-fi-helsinki.macula.io:4433"
  },
  {
    "name": "the-horvat-326",
    "city": "Tampere",
    "country": "FI",
    "lat": 61.4378,
    "lng": 23.811,
    "relay": "https://relay-fi-tampere.macula.io:4433"
  },
  {
    "name": "turku-lab-327",
    "city": "Turku",
    "country": "FI",
    "lat": 60.4518,
    "lng": 22.3666,
    "relay": "https://relay-fi-turku.macula.io:4433"
  },
  {
    "name": "the-kazlauskas-328",
    "city": "Oulu",
    "country": "FI",
    "lat": 65.0721,
    "lng": 25.6151,
    "relay": "https://relay-fi-oulu.macula.io:4433"
  },
  {
    "name": "the-tamm-329",
    "city": "Stockholm",
    "country": "SE",
    "lat": 59.4493,
    "lng": 17.9186,
    "relay": "https://relay-se-stockholm.macula.io:4433"
  },
  {
    "name": "gothenbu-cafe-330",
    "city": "Gothenburg",
    "country": "SE",
    "lat": 57.5889,
    "lng": 11.8746,
    "relay": "https://relay-se-gothenburg.macula.io:4433"
  },
  {
    "name": "the-novak-331",
    "city": "Malmo",
    "country": "SE",
    "lat": 55.545,
    "lng": 12.9538,
    "relay": "https://relay-se-malmo.macula.io:4433"
  },
  {
    "name": "the-silva-332",
    "city": "Uppsala",
    "country": "SE",
    "lat": 59.8586,
    "lng": 17.6389,
    "relay": "https://relay-se-uppsala.macula.io:4433"
  },
  {
    "name": "oslo-tech-333",
    "city": "Oslo",
    "country": "NO",
    "lat": 59.9739,
    "lng": 10.8022,
    "relay": "https://relay-no-oslo.macula.io:4433"
  },
  {
    "name": "the-mueller-334",
    "city": "Bergen",
    "country": "NO",
    "lat": 60.5113,
    "lng": 5.4221,
    "relay": "https://relay-no-bergen.macula.io:4433"
  },
  {
    "name": "the-martin-335",
    "city": "Trondheim",
    "country": "NO",
    "lat": 63.3105,
    "lng": 10.5451,
    "relay": "https://relay-no-trondheim.macula.io:4433"
  },
  {
    "name": "copenhag-bakery-336",
    "city": "Copenhagen",
    "country": "DK",
    "lat": 55.6161,
    "lng": 12.4183,
    "relay": "https://relay-dk-copenhagen.macula.io:4433"
  },
  {
    "name": "the-rossi-337",
    "city": "Aarhus",
    "country": "DK",
    "lat": 56.1629,
    "lng": 10.1039,
    "relay": "https://relay-dk-aarhus.macula.io:4433"
  },
  {
    "name": "the-nowak-338",
    "city": "Tallinn",
    "country": "EE",
    "lat": 59.497,
    "lng": 24.7036,
    "relay": "https://relay-ee-tallinn.macula.io:4433"
  },
  {
    "name": "tartu-gym-339",
    "city": "Tartu",
    "country": "EE",
    "lat": 58.498,
    "lng": 26.729,
    "relay": "https://relay-ee-tartu.macula.io:4433"
  },
  {
    "name": "the-johansson-340",
    "city": "Riga",
    "country": "LV",
    "lat": 56.8296,
    "lng": 24.1552,
    "relay": "https://relay-lv-riga.macula.io:4433"
  },
  {
    "name": "the-hansen-341",
    "city": "Daugavpils",
    "country": "LV",
    "lat": 55.8149,
    "lng": 26.6356,
    "relay": "https://relay-lv-daugavpils.macula.io:4433"
  },
  {
    "name": "vilnius-school-342",
    "city": "Vilnius",
    "country": "LT",
    "lat": 54.6872,
    "lng": 25.4297,
    "relay": "https://relay-lt-vilnius.macula.io:4433"
  },
  {
    "name": "the-popescu-343",
    "city": "Kaunas",
    "country": "LT",
    "lat": 54.9585,
    "lng": 23.7536,
    "relay": "https://relay-lt-kaunas.macula.io:4433"
  },
  {
    "name": "the-ivanov-344",
    "city": "Klaipeda",
    "country": "LT",
    "lat": 55.8233,
    "lng": 21.0443,
    "relay": "https://relay-lt-klaipeda.macula.io:4433"
  },
  {
    "name": "warsaw-farm-345",
    "city": "Warsaw",
    "country": "PL",
    "lat": 52.1097,
    "lng": 20.9622,
    "relay": "https://relay-pl-warsaw.macula.io:4433"
  },
  {
    "name": "the-horvat-346",
    "city": "Krakow",
    "country": "PL",
    "lat": 50.0047,
    "lng": 19.945,
    "relay": "https://relay-pl-krakow.macula.io:4433"
  },
  {
    "name": "the-berzins-347",
    "city": "Gdansk",
    "country": "PL",
    "lat": 54.352,
    "lng": 18.6966,
    "relay": "https://relay-pl-gdansk.macula.io:4433"
  },
  {
    "name": "wroclaw-hotel-348",
    "city": "Wroclaw",
    "country": "PL",
    "lat": 51.1679,
    "lng": 17.1385,
    "relay": "https://relay-pl-wroclaw.macula.io:4433"
  },
  {
    "name": "the-tamm-349",
    "city": "Poznan",
    "country": "PL",
    "lat": 52.5264,
    "lng": 17.0752,
    "relay": "https://relay-pl-poznan.macula.io:4433"
  },
  {
    "name": "the-nagy-350",
    "city": "Lodz",
    "country": "PL",
    "lat": 51.6392,
    "lng": 19.306,
    "relay": "https://relay-pl-lodz.macula.io:4433"
  },
  {
    "name": "szczecin-clinic-351",
    "city": "Szczecin",
    "country": "PL",
    "lat": 53.3685,
    "lng": 14.4528,
    "relay": "https://relay-pl-szczecin.macula.io:4433"
  },
  {
    "name": "the-silva-352",
    "city": "Lublin",
    "country": "PL",
    "lat": 51.2465,
    "lng": 22.5184,
    "relay": "https://relay-pl-lublin.macula.io:4433"
  },
  {
    "name": "the-smith-353",
    "city": "Katowice",
    "country": "PL",
    "lat": 50.3249,
    "lng": 19.0238,
    "relay": "https://relay-pl-katowice.macula.io:4433"
  },
  {
    "name": "rzeszow-solar-354",
    "city": "Rzeszow",
    "country": "PL",
    "lat": 50.1612,
    "lng": 22.0491,
    "relay": "https://relay-pl-rzeszow.macula.io:4433"
  },
  {
    "name": "the-martin-355",
    "city": "Prague",
    "country": "CZ",
    "lat": 49.9555,
    "lng": 14.5378,
    "relay": "https://relay-cz-prague.macula.io:4433"
  },
  {
    "name": "the-garcia-356",
    "city": "Brno",
    "country": "CZ",
    "lat": 49.1351,
    "lng": 16.7568,
    "relay": "https://relay-cz-brno.macula.io:4433"
  },
  {
    "name": "bratisla-lab-357",
    "city": "Bratislava",
    "country": "SK",
    "lat": 48.1486,
    "lng": 16.9577,
    "relay": "https://relay-sk-bratislava.macula.io:4433"
  },
  {
    "name": "the-nowak-358",
    "city": "Kosice",
    "country": "SK",
    "lat": 48.7764,
    "lng": 21.1611,
    "relay": "https://relay-sk-kosice.macula.io:4433"
  },
  {
    "name": "the-shevchenko-359",
    "city": "Budapest",
    "country": "HU",
    "lat": 47.6179,
    "lng": 18.9902,
    "relay": "https://relay-hu-budapest.macula.io:4433"
  },
  {
    "name": "debrecen-cafe-360",
    "city": "Debrecen",
    "country": "HU",
    "lat": 47.4116,
    "lng": 21.6273,
    "relay": "https://relay-hu-debrecen.macula.io:4433"
  },
  {
    "name": "the-hansen-361",
    "city": "Bucharest",
    "country": "RO",
    "lat": 44.3668,
    "lng": 26.1525,
    "relay": "https://relay-ro-bucharest.macula.io:4433"
  },
  {
    "name": "the-korhonen-362",
    "city": "Cluj-Napoca",
    "country": "RO",
    "lat": 46.7712,
    "lng": 23.7236,
    "relay": "https://relay-ro-cluj.macula.io:4433"
  },
  {
    "name": "timisoar-tech-363",
    "city": "Timisoara",
    "country": "RO",
    "lat": 45.8089,
    "lng": 21.3587,
    "relay": "https://relay-ro-timisoara.macula.io:4433"
  },
  {
    "name": "the-ivanov-364",
    "city": "Iasi",
    "country": "RO",
    "lat": 47.2785,
    "lng": 27.4514,
    "relay": "https://relay-ro-iasi.macula.io:4433"
  },
  {
    "name": "the-papadopoulos-365",
    "city": "Constanta",
    "country": "RO",
    "lat": 44.0398,
    "lng": 28.5348,
    "relay": "https://relay-ro-constanta.macula.io:4433"
  },
  {
    "name": "brasov-bakery-366",
    "city": "Brasov",
    "country": "RO",
    "lat": 45.5827,
    "lng": 25.5387,
    "relay": "https://relay-ro-brasov.macula.io:4433"
  },
  {
    "name": "the-berzins-367",
    "city": "Sofia",
    "country": "BG",
    "lat": 42.6977,
    "lng": 23.3219,
    "relay": "https://relay-bg-sofia.macula.io:4433"
  },
  {
    "name": "the-kazlauskas-368",
    "city": "Plovdiv",
    "country": "BG",
    "lat": 42.1954,
    "lng": 24.7953,
    "relay": "https://relay-bg-plovdiv.macula.io:4433"
  },
  {
    "name": "thessalo-gym-369",
    "city": "Thessaloniki",
    "country": "GR",
    "lat": 40.7601,
    "lng": 23.0444,
    "relay": "https://relay-gr-thessaloniki.macula.io:4433"
  },
  {
    "name": "the-nagy-370",
    "city": "Chisinau",
    "country": "MD",
    "lat": 46.8905,
    "lng": 29.0138,
    "relay": "https://relay-md-chisinau.macula.io:4433"
  },
  {
    "name": "the-novak-371",
    "city": "Kyiv",
    "country": "UA",
    "lat": 50.3901,
    "lng": 30.3734,
    "relay": "https://relay-ua-kyiv.macula.io:4433"
  },
  {
    "name": "lviv-school-372",
    "city": "Lviv",
    "country": "UA",
    "lat": 49.8397,
    "lng": 23.9297,
    "relay": "https://relay-ua-lviv.macula.io:4433"
  },
  {
    "name": "the-smith-373",
    "city": "Odessa",
    "country": "UA",
    "lat": 46.5425,
    "lng": 30.6733,
    "relay": "https://relay-ua-odessa.macula.io:4433"
  },
  {
    "name": "the-mueller-374",
    "city": "Kharkiv",
    "country": "UA",
    "lat": 50.1135,
    "lng": 36.2304,
    "relay": "https://relay-ua-kharkiv.macula.io:4433"
  },
  {
    "name": "dnipro-farm-375",
    "city": "Dnipro",
    "country": "UA",
    "lat": 48.3447,
    "lng": 35.0962,
    "relay": "https://relay-ua-dnipro.macula.io:4433"
  },
  {
    "name": "the-garcia-376",
    "city": "Zaporizhzhia",
    "country": "UA",
    "lat": 47.7788,
    "lng": 35.2396,
    "relay": "https://relay-ua-zaporizhzhia.macula.io:4433"
  },
  {
    "name": "the-rossi-377",
    "city": "Vinnytsia",
    "country": "UA",
    "lat": 49.2331,
    "lng": 28.6182,
    "relay": "https://relay-ua-vinnytsia.macula.io:4433"
  },
  {
    "name": "poltava-hotel-378",
    "city": "Poltava",
    "country": "UA",
    "lat": 49.6483,
    "lng": 34.4014,
    "relay": "https://relay-ua-poltava.macula.io:4433"
  },
  {
    "name": "the-shevchenko-379",
    "city": "Chernihiv",
    "country": "UA",
    "lat": 51.6182,
    "lng": 31.1893,
    "relay": "https://relay-ua-chernihiv.macula.io:4433"
  },
  {
    "name": "the-johansson-380",
    "city": "Sumy",
    "country": "UA",
    "lat": 50.7877,
    "lng": 34.7481,
    "relay": "https://relay-ua-sumy.macula.io:4433"
  },
  {
    "name": "zhytomyr-clinic-381",
    "city": "Zhytomyr",
    "country": "UA",
    "lat": 50.1947,
    "lng": 28.6587,
    "relay": "https://relay-ua-zhytomyr.macula.io:4433"
  },
  {
    "name": "the-korhonen-382",
    "city": "Rivne",
    "country": "UA",
    "lat": 50.6199,
    "lng": 26.3016,
    "relay": "https://relay-ua-rivne.macula.io:4433"
  },
  {
    "name": "the-popescu-383",
    "city": "Ternopil",
    "country": "UA",
    "lat": 49.6135,
    "lng": 25.6948,
    "relay": "https://relay-ua-ternopil.macula.io:4433"
  },
  {
    "name": "cherkasy-solar-384",
    "city": "Cherkasy",
    "country": "UA",
    "lat": 49.5644,
    "lng": 32.2098,
    "relay": "https://relay-ua-cherkasy.macula.io:4433"
  },
  {
    "name": "the-papadopoulos-385",
    "city": "Mykolaiv",
    "country": "UA",
    "lat": 46.855,
    "lng": 31.8446,
    "relay": "https://relay-ua-mykolaiv.macula.io:4433"
  },
  {
    "name": "the-horvat-386",
    "city": "Kherson",
    "country": "UA",
    "lat": 46.5754,
    "lng": 32.5169,
    "relay": "https://relay-ua-kherson.macula.io:4433"
  },
  {
    "name": "donetsk-lab-387",
    "city": "Donetsk",
    "country": "UA",
    "lat": 48.0159,
    "lng": 37.7529,
    "relay": "https://relay-ua-donetsk.macula.io:4433"
  },
  {
    "name": "the-kazlauskas-388",
    "city": "Luhansk",
    "country": "UA",
    "lat": 48.634,
    "lng": 39.3078,
    "relay": "https://relay-ua-luhansk.macula.io:4433"
  },
  {
    "name": "the-tamm-389",
    "city": "Mariupol",
    "country": "UA",
    "lat": 47.2158,
    "lng": 37.5994,
    "relay": "https://relay-ua-mariupol.macula.io:4433"
  },
  {
    "name": "kramator-cafe-390",
    "city": "Kramatorsk",
    "country": "UA",
    "lat": 48.6164,
    "lng": 37.6558,
    "relay": "https://relay-ua-kramatorsk.macula.io:4433"
  },
  {
    "name": "the-novak-391",
    "city": "Ivano-Frankivsk",
    "country": "UA",
    "lat": 48.8626,
    "lng": 24.8611,
    "relay": "https://relay-ua-ivano-frankivsk.macula.io:4433"
  },
  {
    "name": "the-silva-392",
    "city": "Uzhhorod",
    "country": "UA",
    "lat": 48.6208,
    "lng": 22.1379,
    "relay": "https://relay-ua-uzhhorod.macula.io:4433"
  },
  {
    "name": "lutsk-tech-393",
    "city": "Lutsk",
    "country": "UA",
    "lat": 50.8072,
    "lng": 25.2254,
    "relay": "https://relay-ua-lutsk.macula.io:4433"
  },
  {
    "name": "the-mueller-394",
    "city": "Khmelnytskyi",
    "country": "UA",
    "lat": 49.543,
    "lng": 26.9371,
    "relay": "https://relay-ua-khmelnytskyi.macula.io:4433"
  },
  {
    "name": "the-martin-395",
    "city": "Chernivtsi",
    "country": "UA",
    "lat": 48.1721,
    "lng": 25.9358,
    "relay": "https://relay-ua-chernivtsi.macula.io:4433"
  },
  {
    "name": "kropyvny-bakery-396",
    "city": "Kropyvnytskyi",
    "country": "UA",
    "lat": 48.4479,
    "lng": 32.3123,
    "relay": "https://relay-ua-kropyvnytskyi.macula.io:4433"
  },
  {
    "name": "the-rossi-397",
    "city": "Nikopol",
    "country": "UA",
    "lat": 47.5715,
    "lng": 34.4935,
    "relay": "https://relay-ua-nikopol.macula.io:4433"
  },
  {
    "name": "the-nowak-398",
    "city": "Melitopol",
    "country": "UA",
    "lat": 46.9089,
    "lng": 35.5175,
    "relay": "https://relay-ua-melitopol.macula.io:4433"
  },
  {
    "name": "severodo-gym-399",
    "city": "Severodonetsk",
    "country": "UA",
    "lat": 49.0684,
    "lng": 38.3437,
    "relay": "https://relay-ua-severodonetsk.macula.io:4433"
  },
  {
    "name": "the-johansson-400",
    "city": "London",
    "country": "GB",
    "lat": 51.3874,
    "lng": -0.2278,
    "relay": "https://relay-gb-london.macula.io:4433"
  },
  {
    "name": "the-hansen-401",
    "city": "Edinburgh",
    "country": "GB",
    "lat": 55.8933,
    "lng": -3.2383,
    "relay": "https://relay-gb-edinburgh.macula.io:4433"
  },
  {
    "name": "manchest-school-402",
    "city": "Manchester",
    "country": "GB",
    "lat": 53.4808,
    "lng": -2.2426,
    "relay": "https://relay-gb-manchester.macula.io:4433"
  },
  {
    "name": "the-popescu-403",
    "city": "Birmingham",
    "country": "GB",
    "lat": 52.5462,
    "lng": -1.8404,
    "relay": "https://relay-gb-birmingham.macula.io:4433"
  },
  {
    "name": "the-ivanov-404",
    "city": "Glasgow",
    "country": "GB",
    "lat": 55.9842,
    "lng": -4.1518,
    "relay": "https://relay-gb-glasgow.macula.io:4433"
  },
  {
    "name": "leeds-farm-405",
    "city": "Leeds",
    "country": "GB",
    "lat": 53.6808,
    "lng": -1.3991,
    "relay": "https://relay-gb-leeds.macula.io:4433"
  },
  {
    "name": "the-horvat-406",
    "city": "Bristol",
    "country": "GB",
    "lat": 51.3945,
    "lng": -2.7379,
    "relay": "https://relay-gb-bristol.macula.io:4433"
  },
  {
    "name": "the-berzins-407",
    "city": "Cardiff",
    "country": "GB",
    "lat": 51.4816,
    "lng": -3.2791,
    "relay": "https://relay-gb-cardiff.macula.io:4433"
  },
  {
    "name": "belfast-hotel-408",
    "city": "Belfast",
    "country": "GB",
    "lat": 54.6573,
    "lng": -5.9801,
    "relay": "https://relay-gb-belfast.macula.io:4433"
  },
  {
    "name": "the-tamm-409",
    "city": "Dublin",
    "country": "IE",
    "lat": 53.4698,
    "lng": -6.2603,
    "relay": "https://relay-ie-dublin.macula.io:4433"
  },
  {
    "name": "the-nagy-410",
    "city": "Cork",
    "country": "IE",
    "lat": 51.7785,
    "lng": -8.4256,
    "relay": "https://relay-ie-cork.macula.io:4433"
  },
  {
    "name": "paris-clinic-411",
    "city": "Paris",
    "country": "FR",
    "lat": 48.7966,
    "lng": 2.4522,
    "relay": "https://relay-fr-paris.macula.io:4433"
  },
  {
    "name": "the-silva-412",
    "city": "Lyon",
    "country": "FR",
    "lat": 45.764,
    "lng": 4.9857,
    "relay": "https://relay-fr-lyon.macula.io:4433"
  },
  {
    "name": "the-smith-413",
    "city": "Marseille",
    "country": "FR",
    "lat": 43.3565,
    "lng": 5.2198,
    "relay": "https://relay-fr-marseille.macula.io:4433"
  },
  {
    "name": "toulouse-solar-414",
    "city": "Toulouse",
    "country": "FR",
    "lat": 43.7247,
    "lng": 1.3442,
    "relay": "https://relay-fr-toulouse.macula.io:4433"
  },
  {
    "name": "the-martin-415",
    "city": "Nice",
    "country": "FR",
    "lat": 43.5902,
    "lng": 7.212,
    "relay": "https://relay-fr-nice.macula.io:4433"
  },
  {
    "name": "the-garcia-416",
    "city": "Nantes",
    "country": "FR",
    "lat": 47.1584,
    "lng": -1.5536,
    "relay": "https://relay-fr-nantes.macula.io:4433"
  },
  {
    "name": "strasbou-lab-417",
    "city": "Strasbourg",
    "country": "FR",
    "lat": 48.5734,
    "lng": 7.8021,
    "relay": "https://relay-fr-strasbourg.macula.io:4433"
  },
  {
    "name": "the-nowak-418",
    "city": "Bordeaux",
    "country": "FR",
    "lat": 44.8978,
    "lng": -0.4792,
    "relay": "https://relay-fr-bordeaux.macula.io:4433"
  },
  {
    "name": "the-shevchenko-419",
    "city": "Lille",
    "country": "FR",
    "lat": 50.7492,
    "lng": 3.2073,
    "relay": "https://relay-fr-lille.macula.io:4433"
  },
  {
    "name": "brussels-cafe-420",
    "city": "Brussels",
    "country": "BE",
    "lat": 50.7303,
    "lng": 4.2017,
    "relay": "https://relay-be-brussels.macula.io:4433"
  },
  {
    "name": "the-hansen-421",
    "city": "Antwerp",
    "country": "BE",
    "lat": 51.1594,
    "lng": 4.3025,
    "relay": "https://relay-be-antwerp.macula.io:4433"
  },
  {
    "name": "the-korhonen-422",
    "city": "Ghent",
    "country": "BE",
    "lat": 51.0543,
    "lng": 3.6674,
    "relay": "https://relay-be-ghent.macula.io:4433"
  },
  {
    "name": "liege-tech-423",
    "city": "Liege",
    "country": "BE",
    "lat": 50.6892,
    "lng": 5.5797,
    "relay": "https://relay-be-liege.macula.io:4433"
  },
  {
    "name": "the-ivanov-424",
    "city": "Charleroi",
    "country": "BE",
    "lat": 50.5308,
    "lng": 4.4946,
    "relay": "https://relay-be-charleroi.macula.io:4433"
  },
  {
    "name": "the-papadopoulos-425",
    "city": "Amsterdam",
    "country": "NL",
    "lat": 52.2476,
    "lng": 5.0041,
    "relay": "https://relay-nl-amsterdam.macula.io:4433"
  },
  {
    "name": "rotterda-bakery-426",
    "city": "Rotterdam",
    "country": "NL",
    "lat": 51.8644,
    "lng": 4.6277,
    "relay": "https://relay-nl-rotterdam.macula.io:4433"
  },
  {
    "name": "the-berzins-427",
    "city": "Utrecht",
    "country": "NL",
    "lat": 52.0907,
    "lng": 4.9714,
    "relay": "https://relay-nl-utrecht.macula.io:4433"
  },
  {
    "name": "the-kazlauskas-428",
    "city": "Eindhoven",
    "country": "NL",
    "lat": 51.5016,
    "lng": 5.3697,
    "relay": "https://relay-nl-eindhoven.macula.io:4433"
  },
  {
    "name": "groninge-gym-429",
    "city": "Groningen",
    "country": "NL",
    "lat": 53.3394,
    "lng": 6.5165,
    "relay": "https://relay-nl-groningen.macula.io:4433"
  },
  {
    "name": "the-nagy-430",
    "city": "Den Haag",
    "country": "NL",
    "lat": 51.9505,
    "lng": 4.3007,
    "relay": "https://relay-nl-den-haag.macula.io:4433"
  },
  {
    "name": "the-novak-431",
    "city": "Luxembourg",
    "country": "LU",
    "lat": 49.5517,
    "lng": 6.18,
    "relay": "https://relay-lu-luxembourg.macula.io:4433"
  },
  {
    "name": "berlin-school-432",
    "city": "Berlin",
    "country": "DE",
    "lat": 52.52,
    "lng": 13.505,
    "relay": "https://relay-de-berlin.macula.io:4433"
  },
  {
    "name": "the-smith-433",
    "city": "Munich",
    "country": "DE",
    "lat": 48.1951,
    "lng": 11.732,
    "relay": "https://relay-de-munich.macula.io:4433"
  },
  {
    "name": "the-mueller-434",
    "city": "Hamburg",
    "country": "DE",
    "lat": 53.6711,
    "lng": 9.8437,
    "relay": "https://relay-de-hamburg.macula.io:4433"
  },
  {
    "name": "frankfur-farm-435",
    "city": "Frankfurt",
    "country": "DE",
    "lat": 49.9909,
    "lng": 8.5821,
    "relay": "https://relay-de-frankfurt.macula.io:4433"
  },
  {
    "name": "the-garcia-436",
    "city": "Cologne",
    "country": "DE",
    "lat": 50.8775,
    "lng": 6.9103,
    "relay": "https://relay-de-cologne.macula.io:4433"
  },
  {
    "name": "the-rossi-437",
    "city": "Stuttgart",
    "country": "DE",
    "lat": 48.7758,
    "lng": 9.1829,
    "relay": "https://relay-de-stuttgart.macula.io:4433"
  },
  {
    "name": "dusseldo-hotel-438",
    "city": "Dusseldorf",
    "country": "DE",
    "lat": 51.2877,
    "lng": 6.8235,
    "relay": "https://relay-de-dusseldorf.macula.io:4433"
  },
  {
    "name": "the-shevchenko-439",
    "city": "Leipzig",
    "country": "DE",
    "lat": 51.4597,
    "lng": 12.4731,
    "relay": "https://relay-de-leipzig.macula.io:4433"
  },
  {
    "name": "the-johansson-440",
    "city": "Dresden",
    "country": "DE",
    "lat": 50.9304,
    "lng": 13.8873,
    "relay": "https://relay-de-dresden.macula.io:4433"
  },
  {
    "name": "nurember-clinic-441",
    "city": "Nuremberg",
    "country": "DE",
    "lat": 49.3921,
    "lng": 10.9267,
    "relay": "https://relay-de-nuremberg.macula.io:4433"
  },
  {
    "name": "the-korhonen-442",
    "city": "Zurich",
    "country": "CH",
    "lat": 47.3769,
    "lng": 8.4417,
    "relay": "https://relay-ch-zurich.macula.io:4433"
  },
  {
    "name": "the-popescu-443",
    "city": "Geneva",
    "country": "CH",
    "lat": 46.2644,
    "lng": 6.0932,
    "relay": "https://relay-ch-geneva.macula.io:4433"
  },
  {
    "name": "bern-solar-444",
    "city": "Bern",
    "country": "CH",
    "lat": 47.068,
    "lng": 7.4474,
    "relay": "https://relay-ch-bern.macula.io:4433"
  },
  {
    "name": "the-papadopoulos-445",
    "city": "Vienna",
    "country": "AT",
    "lat": 48.0882,
    "lng": 16.4238,
    "relay": "https://relay-at-vienna.macula.io:4433"
  },
  {
    "name": "the-horvat-446",
    "city": "Graz",
    "country": "AT",
    "lat": 47.0107,
    "lng": 15.5395,
    "relay": "https://relay-at-graz.macula.io:4433"
  },
  {
    "name": "salzburg-lab-447",
    "city": "Salzburg",
    "country": "AT",
    "lat": 47.8095,
    "lng": 13.205,
    "relay": "https://relay-at-salzburg.macula.io:4433"
  },
  {
    "name": "the-kazlauskas-448",
    "city": "Madrid",
    "country": "ES",
    "lat": 40.4768,
    "lng": -3.8538,
    "relay": "https://relay-es-madrid.macula.io:4433"
  },
  {
    "name": "the-tamm-449",
    "city": "Barcelona",
    "country": "ES",
    "lat": 41.5051,
    "lng": 2.0734,
    "relay": "https://relay-es-barcelona.macula.io:4433"
  },
  {
    "name": "valencia-cafe-450",
    "city": "Valencia",
    "country": "ES",
    "lat": 39.3499,
    "lng": -0.4263,
    "relay": "https://relay-es-valencia.macula.io:4433"
  },
  {
    "name": "the-novak-451",
    "city": "Seville",
    "country": "ES",
    "lat": 37.3291,
    "lng": -5.9845,
    "relay": "https://relay-es-seville.macula.io:4433"
  },
  {
    "name": "the-silva-452",
    "city": "Bilbao",
    "country": "ES",
    "lat": 43.263,
    "lng": -2.885,
    "relay": "https://relay-es-bilbao.macula.io:4433"
  },
  {
    "name": "malaga-tech-453",
    "city": "Malaga",
    "country": "ES",
    "lat": 36.7813,
    "lng": -4.3214,
    "relay": "https://relay-es-malaga.macula.io:4433"
  },
  {
    "name": "the-mueller-454",
    "city": "Lisbon",
    "country": "PT",
    "lat": 38.8423,
    "lng": -8.9893,
    "relay": "https://relay-pt-lisbon.macula.io:4433"
  },
  {
    "name": "the-martin-455",
    "city": "Porto",
    "country": "PT",
    "lat": 41.0379,
    "lng": -8.7791,
    "relay": "https://relay-pt-porto.macula.io:4433"
  },
  {
    "name": "rome-bakery-456",
    "city": "Rome",
    "country": "IT",
    "lat": 41.8428,
    "lng": 12.3964,
    "relay": "https://relay-it-rome.macula.io:4433"
  },
  {
    "name": "the-rossi-457",
    "city": "Milan",
    "country": "IT",
    "lat": 45.4642,
    "lng": 9.14,
    "relay": "https://relay-it-milan.macula.io:4433"
  },
  {
    "name": "the-nowak-458",
    "city": "Naples",
    "country": "IT",
    "lat": 40.9118,
    "lng": 14.2681,
    "relay": "https://relay-it-naples.macula.io:4433"
  },
  {
    "name": "turin-gym-459",
    "city": "Turin",
    "country": "IT",
    "lat": 45.1903,
    "lng": 7.7369,
    "relay": "https://relay-it-turin.macula.io:4433"
  },
  {
    "name": "the-johansson-460",
    "city": "Florence",
    "country": "IT",
    "lat": 43.6496,
    "lng": 11.3558,
    "relay": "https://relay-it-florence.macula.io:4433"
  },
  {
    "name": "the-hansen-461",
    "city": "Venice",
    "country": "IT",
    "lat": 45.3808,
    "lng": 12.4655,
    "relay": "https://relay-it-venice.macula.io:4433"
  },
  {
    "name": "palermo-school-462",
    "city": "Palermo",
    "country": "IT",
    "lat": 38.1157,
    "lng": 13.2115,
    "relay": "https://relay-it-palermo.macula.io:4433"
  },
  {
    "name": "the-popescu-463",
    "city": "Zagreb",
    "country": "HR",
    "lat": 45.875,
    "lng": 15.8819,
    "relay": "https://relay-hr-zagreb.macula.io:4433"
  },
  {
    "name": "the-ivanov-464",
    "city": "Ljubljana",
    "country": "SI",
    "lat": 46.1769,
    "lng": 14.4558,
    "relay": "https://relay-si-ljubljana.macula.io:4433"
  },
  {
    "name": "belgrade-farm-465",
    "city": "Belgrade",
    "country": "RS",
    "lat": 44.6666,
    "lng": 20.4489,
    "relay": "https://relay-rs-belgrade.macula.io:4433"
  },
  {
    "name": "the-horvat-466",
    "city": "Sarajevo",
    "country": "BA",
    "lat": 43.7963,
    "lng": 18.4631,
    "relay": "https://relay-ba-sarajevo.macula.io:4433"
  },
  {
    "name": "the-berzins-467",
    "city": "Podgorica",
    "country": "ME",
    "lat": 42.4304,
    "lng": 19.3594,
    "relay": "https://relay-me-podgorica.macula.io:4433"
  },
  {
    "name": "tirana-hotel-468",
    "city": "Tirana",
    "country": "AL",
    "lat": 41.3875,
    "lng": 19.9687,
    "relay": "https://relay-al-tirana.macula.io:4433"
  },
  {
    "name": "the-tamm-469",
    "city": "Skopje",
    "country": "MK",
    "lat": 42.1173,
    "lng": 21.278,
    "relay": "https://relay-mk-skopje.macula.io:4433"
  },
  {
    "name": "the-nagy-470",
    "city": "Valletta",
    "country": "MT",
    "lat": 35.7789,
    "lng": 14.4146,
    "relay": "https://relay-mt-valletta.macula.io:4433"
  },
  {
    "name": "nicosia-clinic-471",
    "city": "Nicosia",
    "country": "CY",
    "lat": 35.1256,
    "lng": 33.3323,
    "relay": "https://relay-cy-nicosia.macula.io:4433"
  },
  {
    "name": "the-silva-472",
    "city": "Reykjavik",
    "country": "IS",
    "lat": 64.1466,
    "lng": -21.9426,
    "relay": "https://relay-is-reykjavik.macula.io:4433"
  },
  {
    "name": "the-smith-473",
    "city": "Bari",
    "country": "IT",
    "lat": 41.1771,
    "lng": 16.9219,
    "relay": "https://relay-it-bari.macula.io:4433"
  },
  {
    "name": "athens-solar-474",
    "city": "Athens",
    "country": "GR",
    "lat": 38.1038,
    "lng": 23.8275,
    "relay": "https://relay-gr-athens.macula.io:4433"
  },
  {
    "name": "the-martin-475",
    "city": "Helsinki",
    "country": "FI",
    "lat": 60.0499,
    "lng": 25.0884,
    "relay": "https://relay-fi-helsinki.macula.io:4433"
  },
  {
    "name": "the-garcia-476",
    "city": "Tampere",
    "country": "FI",
    "lat": 61.4378,
    "lng": 23.611,
    "relay": "https://relay-fi-tampere.macula.io:4433"
  },
  {
    "name": "turku-lab-477",
    "city": "Turku",
    "country": "FI",
    "lat": 60.4518,
    "lng": 22.1666,
    "relay": "https://relay-fi-turku.macula.io:4433"
  },
  {
    "name": "the-nowak-478",
    "city": "Oulu",
    "country": "FI",
    "lat": 65.0721,
    "lng": 25.4151,
    "relay": "https://relay-fi-oulu.macula.io:4433"
  },
  {
    "name": "the-shevchenko-479",
    "city": "Stockholm",
    "country": "SE",
    "lat": 59.4493,
    "lng": 18.0686,
    "relay": "https://relay-se-stockholm.macula.io:4433"
  },
  {
    "name": "gothenbu-cafe-480",
    "city": "Gothenburg",
    "country": "SE",
    "lat": 57.5889,
    "lng": 12.0246,
    "relay": "https://relay-se-gothenburg.macula.io:4433"
  },
  {
    "name": "the-hansen-481",
    "city": "Malmo",
    "country": "SE",
    "lat": 55.545,
    "lng": 13.1038,
    "relay": "https://relay-se-malmo.macula.io:4433"
  },
  {
    "name": "the-korhonen-482",
    "city": "Uppsala",
    "country": "SE",
    "lat": 59.8586,
    "lng": 17.7889,
    "relay": "https://relay-se-uppsala.macula.io:4433"
  },
  {
    "name": "oslo-tech-483",
    "city": "Oslo",
    "country": "NO",
    "lat": 59.9739,
    "lng": 10.6022,
    "relay": "https://relay-no-oslo.macula.io:4433"
  },
  {
    "name": "the-ivanov-484",
    "city": "Bergen",
    "country": "NO",
    "lat": 60.5113,
    "lng": 5.2221,
    "relay": "https://relay-no-bergen.macula.io:4433"
  },
  {
    "name": "the-papadopoulos-485",
    "city": "Trondheim",
    "country": "NO",
    "lat": 63.3105,
    "lng": 10.3451,
    "relay": "https://relay-no-trondheim.macula.io:4433"
  },
  {
    "name": "copenhag-bakery-486",
    "city": "Copenhagen",
    "country": "DK",
    "lat": 55.6161,
    "lng": 12.5683,
    "relay": "https://relay-dk-copenhagen.macula.io:4433"
  },
  {
    "name": "the-berzins-487",
    "city": "Aarhus",
    "country": "DK",
    "lat": 56.1629,
    "lng": 10.2539,
    "relay": "https://relay-dk-aarhus.macula.io:4433"
  },
  {
    "name": "the-kazlauskas-488",
    "city": "Tallinn",
    "country": "EE",
    "lat": 59.497,
    "lng": 24.8536,
    "relay": "https://relay-ee-tallinn.macula.io:4433"
  },
  {
    "name": "tartu-gym-489",
    "city": "Tartu",
    "country": "EE",
    "lat": 58.498,
    "lng": 26.879,
    "relay": "https://relay-ee-tartu.macula.io:4433"
  },
  {
    "name": "the-nagy-490",
    "city": "Riga",
    "country": "LV",
    "lat": 56.8296,
    "lng": 23.9552,
    "relay": "https://relay-lv-riga.macula.io:4433"
  },
  {
    "name": "the-novak-491",
    "city": "Daugavpils",
    "country": "LV",
    "lat": 55.8149,
    "lng": 26.4356,
    "relay": "https://relay-lv-daugavpils.macula.io:4433"
  },
  {
    "name": "vilnius-school-492",
    "city": "Vilnius",
    "country": "LT",
    "lat": 54.6872,
    "lng": 25.2297,
    "relay": "https://relay-lt-vilnius.macula.io:4433"
  },
  {
    "name": "the-smith-493",
    "city": "Kaunas",
    "country": "LT",
    "lat": 54.9585,
    "lng": 23.9036,
    "relay": "https://relay-lt-kaunas.macula.io:4433"
  },
  {
    "name": "the-mueller-494",
    "city": "Klaipeda",
    "country": "LT",
    "lat": 55.8233,
    "lng": 21.1943,
    "relay": "https://relay-lt-klaipeda.macula.io:4433"
  },
  {
    "name": "warsaw-farm-495",
    "city": "Warsaw",
    "country": "PL",
    "lat": 52.1097,
    "lng": 21.1122,
    "relay": "https://relay-pl-warsaw.macula.io:4433"
  },
  {
    "name": "the-garcia-496",
    "city": "Krakow",
    "country": "PL",
    "lat": 50.0047,
    "lng": 20.095,
    "relay": "https://relay-pl-krakow.macula.io:4433"
  },
  {
    "name": "the-rossi-497",
    "city": "Gdansk",
    "country": "PL",
    "lat": 54.352,
    "lng": 18.4966,
    "relay": "https://relay-pl-gdansk.macula.io:4433"
  },
  {
    "name": "wroclaw-hotel-498",
    "city": "Wroclaw",
    "country": "PL",
    "lat": 51.1679,
    "lng": 16.9385,
    "relay": "https://relay-pl-wroclaw.macula.io:4433"
  },
  {
    "name": "the-shevchenko-499",
    "city": "Poznan",
    "country": "PL",
    "lat": 52.5264,
    "lng": 16.8752,
    "relay": "https://relay-pl-poznan.macula.io:4433"
  }
]